[{"key":"Башкортостан","value":[{"latitude":54.8574394,"longitude":57.1446092,"formattedAddress":"Башкортостан, «Урал», Суражский, Укское сельское поселение, Ашинский район, Челябинская область, Уральский федеральный округ, Россия","country":"Россия","city":"Суражский","state":"Челябинская область","streetName":"«Урал»","countryCode":"RU","neighbourhood":"","provider":"openstreetmap"},{"latitude":54.4747553,"longitude":55.9784582,"formattedAddress":"Башкортостан, Приволжский федеральный округ, Россия","country":"Россия","state":"Башкортостан","countryCode":"RU","neighbourhood":"","provider":"openstreetmap"},{"latitude":56.2439,"longitude":56.250801,"formattedAddress":"Башкортостан, Казанчинский сельсовет, Аскинский район, Башкортостан, Приволжский федеральный округ, Россия","country":"Россия","city":"Башкортостан","state":"Башкортостан","countryCode":"RU","neighbourhood":"","provider":"openstreetmap"},{"latitude":54.7306763,"longitude":55.9492165,"formattedAddress":"Башкортостан, улица Ленина, Ленинский район, Уфа, городской округ Уфа, Башкортостан, Приволжский федеральный округ, 450000, Россия","country":"Россия","city":"Уфа","state":"Башкортостан","zipcode":"450000","streetName":"улица Ленина","countryCode":"RU","neighbourhood":"","provider":"openstreetmap"},{"latitude":53.3571745,"longitude":55.9381459,"formattedAddress":"Башкортостан, Октябрьская улица, Салават, городской округ Салават, Башкортостан, Приволжский федеральный округ, 453266, Россия","country":"Россия","city":"Салават","state":"Башкортостан","zipcode":"453266","streetName":"Октябрьская улица","countryCode":"RU","neighbourhood":"","provider":"openstreetmap"},{"latitude":54.6010984,"longitude":53.6957702,"formattedAddress":"Башкортостан, проспект Ленина, Северный, Туймазы, городское поселение Туймазы, Туймазинский район, Башкортостан, Приволжский федеральный округ, 452750, Россия","country":"Россия","city":"Туймазы","state":"Башкортостан","zipcode":"452750","streetName":"проспект Ленина","countryCode":"RU","neighbourhood":"","provider":"openstreetmap"},{"latitude":54.1832518,"longitude":59.3363207,"formattedAddress":"Башкортостан, Центральная улица, Урал, Имангуловский сельсовет, Учалинский район, Башкортостан, Приволжский федеральный округ, Россия","country":"Россия","city":"Урал","state":"Башкортостан","streetName":"Центральная улица","countryCode":"RU","neighbourhood":"","provider":"openstreetmap"},{"latitude":56.3361045,"longitude":55.2491065,"formattedAddress":"Башкортостан, 57К-0060, Рабак, Максимовский сельсовет, Янаульский район, Башкортостан, Приволжский федеральный округ, 617735, Россия","country":"Россия","city":"Рабак","state":"Башкортостан","zipcode":"617735","streetName":"57К-0060","countryCode":"RU","neighbourhood":"","provider":"openstreetmap"},{"latitude":55.2001878,"longitude":58.5549456,"formattedAddress":"Башкортостан, улица Ленина, Сикиязтамак, Лаклы, Лаклинский сельсовет, Салаватский район, Башкортостан, Приволжский федеральный округ, 452498, Россия","country":"Россия","city":"Лаклы","state":"Башкортостан","zipcode":"452498","streetName":"улица Ленина","countryCode":"RU","neighbourhood":"","provider":"openstreetmap"},{"latitude":54.7698983,"longitude":59.9465256,"formattedAddress":"Башкортостан, 80К-003, Ильчигуловский сельсовет, Учалинский район, Башкортостан, Приволжский федеральный округ, 456387, Россия","country":"Россия","state":"Башкортостан","zipcode":"456387","streetName":"80К-003","countryCode":"RU","neighbourhood":"","provider":"openstreetmap"}]},{"key":"РБ","value":[{"latitude":39.5935121,"longitude":46.6019471,"formattedAddress":"Ərəb, Laçın Rayonu, Kəlbəcər-Laçın, Azərbaycan","country":"Azərbaycan","city":"Ərəb","state":"Kəlbəcər-Laçın","countryCode":"AZ","neighbourhood":"","provider":"openstreetmap"},{"latitude":40.6725,"longitude":47.5846909,"formattedAddress":"Ərəb, Ağdaş rayonu, Aran, Azərbaycan","country":"Azərbaycan","city":"Ərəb","state":"Aran","countryCode":"AZ","neighbourhood":"","provider":"openstreetmap"},{"latitude":6.1729762,"longitude":1.2240894,"formattedAddress":"Résidence du Bénin, 2e Arrondissement, Lomé, Togo","country":"Togo","city":"Lomé","countryCode":"TG","neighbourhood":"","provider":"openstreetmap"},{"latitude":41.4198407,"longitude":48.9504003,"formattedAddress":"Ərəb, Xaçmaz rayonu, Quba-Xaçmaz, Azərbaycan","country":"Azərbaycan","city":"Ərəb","state":"Quba-Xaçmaz","countryCode":"AZ","neighbourhood":"","provider":"openstreetmap"},{"latitude":39.1420178,"longitude":48.73378,"formattedAddress":"Ərəb, Masallı rayonu, Lənkəran, Azərbaycan","country":"Azərbaycan","city":"Ərəb","state":"Lənkəran","countryCode":"AZ","neighbourhood":"","provider":"openstreetmap"},{"latitude":14.5326977,"longitude":121.02362585013992,"formattedAddress":"Reckitt Benckiser/Mead Johnson, Makati 1st District, Makati, Southern Manila District, Metro Manila, Visayas","country":"Visayas","city":"Makati","countryCode":"PH","neighbourhood":"","provider":"openstreetmap"},{"latitude":-34.499442849999994,"longitude":-58.52746854407316,"formattedAddress":"RB, Martínez Oeste, Martínez, Partido de San Isidro, Buenos Aires, Argentina","country":"Argentina","city":"Martínez","state":"Buenos Aires","countryCode":"AR","neighbourhood":"","provider":"openstreetmap"},{"latitude":32.7069218,"longitude":51.6997252,"formattedAddress":"رب, شهرک امام محمدباقر, الهیه, منطقه ۱۴, اصفهان, بخش مرکزی شهرستان اصفهان, شهرستان اصفهان, استان اصفهان, 18885, ایران","country":"ایران","city":"اصفهان","state":"استان اصفهان","zipcode":"18885","streetName":"رب","countryCode":"IR","neighbourhood":"شهرک امام محمدباقر","provider":"openstreetmap"},{"latitude":52.3331788,"longitude":-3.1116738,"formattedAddress":"RB, Llangunllo, Powys, Cymru / Wales, LD7 1SF, United Kingdom","country":"United Kingdom","state":"Cymru / Wales","zipcode":"LD7 1SF","streetName":"RB","countryCode":"GB","neighbourhood":"","provider":"openstreetmap"},{"latitude":47.6327735,"longitude":-70.2022947,"formattedAddress":"RB, La Malbaie, Charlevoix-Est, Capitale-Nationale, Québec, G5A1X5, Canada","country":"Canada","city":"La Malbaie","state":"Québec","zipcode":"G5A1X5","streetName":"RB","countryCode":"CA","neighbourhood":"","provider":"openstreetmap"}]},{"key":"Башкортостан, Белебеевский р-н, Слакбаш с","value":[{"latitude":53.972889,"longitude":54.421291,"formattedAddress":"Слакбаш, Слакбашевский сельсовет, Белебеевский район, Башкортостан, Приволжский федеральный округ, Россия","country":"Россия","city":"Слакбаш","state":"Башкортостан","countryCode":"RU","neighbourhood":"","provider":"openstreetmap"},{"latitude":54.058834,"longitude":54.425945,"formattedAddress":"Новый Слакбаш, Знаменский сельсовет, Белебеевский район, Башкортостан, Приволжский федеральный округ, 452032, Россия","country":"Россия","state":"Башкортостан","zipcode":"452032","countryCode":"RU","neighbourhood":"","provider":"openstreetmap"}]},{"key":"Ямало-Ненецкий","value":[{"latitude":67.1471631,"longitude":74.3415488,"formattedAddress":"Ямало-Ненецкий автономный округ, Уральский федеральный округ, Россия","country":"Россия","state":"Ямало-Ненецкий автономный округ","countryCode":"RU","neighbourhood":"","provider":"openstreetmap"},{"latitude":57.154987399999996,"longitude":65.57073681873135,"formattedAddress":"Ямало-Ненецкий окружной специализированный дом ребенка, 28А, улица Максима Горького, Центральный административный округ, Тюмень, городской округ Тюмень, Тюменская область, Уральский федеральный округ, 625048, Россия","country":"Россия","city":"Тюмень","state":"Тюменская область","zipcode":"625048","streetName":"улица Максима Горького","streetNumber":"28А","countryCode":"RU","neighbourhood":"","provider":"openstreetmap"},{"latitude":64.4319583,"longitude":76.48798902076427,"formattedAddress":"Губкинская городская больница, проспект Мира, Губкинский, Ямало-Ненецкий автономный округ, Уральский федеральный округ, 629830, Россия","country":"Россия","city":"Губкинский","state":"Ямало-Ненецкий автономный округ","zipcode":"629830","streetName":"проспект Мира","countryCode":"RU","neighbourhood":"","provider":"openstreetmap"},{"latitude":66.859341,"longitude":70.83996190912472,"formattedAddress":"Яр-Салинская центральная районная больница, улица Фёдорова, Яр-Сале, Яр-Салинское сельское поселение, Ямальский район, Ямало-Ненецкий автономный округ, Уральский федеральный округ, 629700, Россия","country":"Россия","city":"Яр-Сале","state":"Ямало-Ненецкий автономный округ","zipcode":"629700","streetName":"улица Фёдорова","countryCode":"RU","neighbourhood":"","provider":"openstreetmap"},{"latitude":66.5283057,"longitude":66.62436547613497,"formattedAddress":"Ямало-Ненецкий филиал ОАО Ростелеком, 2, улица Матросова, Салехард, городской округ Салехард, Ямало-Ненецкий автономный округ, Уральский федеральный округ, 629000, Россия","country":"Россия","city":"Салехард","state":"Ямало-Ненецкий автономный округ","zipcode":"629000","streetName":"улица Матросова","streetNumber":"2","countryCode":"RU","neighbourhood":"","provider":"openstreetmap"},{"latitude":66.5373496,"longitude":66.6326985,"formattedAddress":"Управление по вопросам миграции по Ямало-Немецкому АО, улица Зои Космодемьянской, микрорайон Теремки, Салехард, городской округ Салехард, Ямало-Ненецкий автономный округ, Уральский федеральный округ, 629000, Россия","country":"Россия","city":"Салехард","state":"Ямало-Ненецкий автономный округ","zipcode":"629000","streetName":"улица Зои Космодемьянской","countryCode":"RU","neighbourhood":"микрорайон Теремки","provider":"openstreetmap"},{"latitude":66.66438135,"longitude":66.42946317022658,"formattedAddress":"Исправительная колония №8 \"Белый медведь\", Северная улица, Лабытнанги, городской округ Лабытнанги, Ямало-Ненецкий автономный округ, Уральский федеральный округ, Россия","country":"Россия","city":"Лабытнанги","state":"Ямало-Ненецкий автономный округ","streetName":"Северная улица","countryCode":"RU","neighbourhood":"","provider":"openstreetmap"}]},{"key":"Башкортостан, Санатория Юматово имени 15-летия БАССР с","value":[{"latitude":54.616403,"longitude":55.6359396,"formattedAddress":"санатория Юматово имени 15-летия БАССР, Юматовский сельсовет, Уфимский район, Башкортостан, Приволжский федеральный округ, Россия","country":"Россия","city":"санатория Юматово имени 15-летия БАССР","state":"Башкортостан","countryCode":"RU","neighbourhood":"","provider":"openstreetmap"}]},{"key":"Башкортостан, Миякинский р-н, Киргиз-Мияки с","value":[{"latitude":53.629292,"longitude":54.800922,"formattedAddress":"Киргиз-Мияки, Миякинский сельсовет, Миякинский район, Башкортостан, Приволжский федеральный округ, 452080, Россия","country":"Россия","city":"Киргиз-Мияки","state":"Башкортостан","zipcode":"452080","countryCode":"RU","neighbourhood":"","provider":"openstreetmap"},{"latitude":53.6684219,"longitude":54.7510616,"formattedAddress":"Киргиз-Мияки, Суккул-Михайловка, Новокарамалинский сельсовет, Миякинский район, Башкортостан, Приволжский федеральный округ, 452083, Россия","country":"Россия","city":"Суккул-Михайловка","state":"Башкортостан","zipcode":"452083","countryCode":"RU","neighbourhood":"","provider":"openstreetmap"},{"latitude":53.628678,"longitude":54.8200408,"formattedAddress":"Киргиз-Мияки, Миякинский сельсовет, Миякинский район, Башкортостан, Приволжский федеральный округ, 452080, Россия","country":"Россия","city":"Киргиз-Мияки","state":"Башкортостан","zipcode":"452080","countryCode":"RU","neighbourhood":"","provider":"openstreetmap"},{"latitude":53.734559,"longitude":54.7635536,"formattedAddress":"Киргиз-Мияки, Алексеевка, Кожай-Семеновский сельсовет, Миякинский район, Башкортостан, Приволжский федеральный округ, 452087, Россия","country":"Россия","city":"Алексеевка","state":"Башкортостан","zipcode":"452087","countryCode":"RU","neighbourhood":"","provider":"openstreetmap"},{"latitude":53.6024364,"longitude":54.8198856,"formattedAddress":"Киргиз-Мияки, Миякинский сельсовет, Миякинский район, Башкортостан, Приволжский федеральный округ, 452090, Россия","country":"Россия","state":"Башкортостан","zipcode":"452090","countryCode":"RU","neighbourhood":"","provider":"openstreetmap"},{"latitude":53.5949096,"longitude":54.8168689,"formattedAddress":"Киргиз-Мияки, Родниковка, Миякинский сельсовет, Миякинский район, Башкортостан, Приволжский федеральный округ, 452090, Россия","country":"Россия","city":"Родниковка","state":"Башкортостан","zipcode":"452090","countryCode":"RU","neighbourhood":"","provider":"openstreetmap"},{"latitude":53.7194435,"longitude":54.7531218,"formattedAddress":"Киргиз-Мияки, Кожай-Семеновский сельсовет, Миякинский район, Башкортостан, Приволжский федеральный округ, 452087, Россия","country":"Россия","state":"Башкортостан","zipcode":"452087","countryCode":"RU","neighbourhood":"","provider":"openstreetmap"},{"latitude":53.62955255,"longitude":54.81084186314352,"formattedAddress":"Автостанция \"Киргиз-Мияки\", Киргиз-Мияки, Миякинский сельсовет, Миякинский район, Башкортостан, Приволжский федеральный округ, 452080, Россия","country":"Россия","city":"Киргиз-Мияки","state":"Башкортостан","zipcode":"452080","streetName":"Автостанция \"Киргиз-Мияки\"","countryCode":"RU","neighbourhood":"","provider":"openstreetmap"},{"latitude":53.5424741,"longitude":54.8271836,"formattedAddress":"Киргиз-Мияки - Тятер-Арасланово - Стерлибашево, Родниковка, Миякинский сельсовет, Миякинский район, Башкортостан, Приволжский федеральный округ, 452090, Россия","country":"Россия","city":"Родниковка","state":"Башкортостан","zipcode":"452090","streetName":"Киргиз-Мияки - Тятер-Арасланово - Стерлибашево","countryCode":"RU","neighbourhood":"","provider":"openstreetmap"},{"latitude":53.3651156,"longitude":54.9123992,"formattedAddress":"Киргиз-Мияки - Тятер-Арасланово - Стерлибашево, Качегановский сельсовет, Миякинский район, Башкортостан, Приволжский федеральный округ, 452091, Россия","country":"Россия","state":"Башкортостан","zipcode":"452091","streetName":"Киргиз-Мияки - Тятер-Арасланово - Стерлибашево","countryCode":"RU","neighbourhood":"","provider":"openstreetmap"}]},{"key":"Башкортостан, Кугарчинский р-н, Таваканово д","value":[{"latitude":52.602623,"longitude":56.345127,"formattedAddress":"Таваканово, Тляумбетовский сельсовет, Кугарчинский район, Башкортостан, Приволжский федеральный округ, Россия","country":"Россия","city":"Таваканово","state":"Башкортостан","countryCode":"RU","neighbourhood":"","provider":"openstreetmap"}]},{"key":"Башкортостан, Уфимский р-н, Дорогино д","value":[{"latitude":54.797173,"longitude":56.272362,"formattedAddress":"Дорогино, Кирилловский сельсовет, Уфимский район, Башкортостан, Приволжский федеральный округ, Россия","country":"Россия","city":"Дорогино","state":"Башкортостан","countryCode":"RU","neighbourhood":"","provider":"openstreetmap"}]},{"key":"Башкортостан, Гафурийский р-н, Красноусольский с","value":[{"latitude":53.8961616,"longitude":56.4705604,"formattedAddress":"Красноусольский, Красноусольский сельсовет, Гафурийский район, Башкортостан, Приволжский федеральный округ, 453050, Россия","country":"Россия","city":"Красноусольский","state":"Башкортостан","zipcode":"453050","countryCode":"RU","neighbourhood":"","provider":"openstreetmap"},{"latitude":53.921303,"longitude":56.523403,"formattedAddress":"Курорта, Красноусольский сельсовет, Гафурийский район, Башкортостан, Приволжский федеральный округ, Россия","country":"Россия","city":"Курорта","state":"Башкортостан","countryCode":"RU","neighbourhood":"","provider":"openstreetmap"},{"latitude":53.89799065,"longitude":56.485626728415994,"formattedAddress":"Красноусольский сельсовет, Гафурийский район, Башкортостан, Приволжский федеральный округ, Россия","country":"Россия","state":"Башкортостан","countryCode":"RU","neighbourhood":"","provider":"openstreetmap"},{"latitude":53.927179699999996,"longitude":56.54035821189493,"formattedAddress":"ГАУЗ Красноусольский детский санаторий РБ, Курорта, Красноусольский сельсовет, Гафурийский район, Башкортостан, Приволжский федеральный округ, Россия","country":"Россия","city":"Курорта","state":"Башкортостан","countryCode":"RU","neighbourhood":"","provider":"openstreetmap"},{"latitude":53.92647425,"longitude":56.54058667596151,"formattedAddress":"ГАУЗ Красноусольский детский санаторий РБ, Лесная улица, Курорта, Красноусольский сельсовет, Гафурийский район, Башкортостан, Приволжский федеральный округ, Россия","country":"Россия","city":"Курорта","state":"Башкортостан","streetName":"Лесная улица","countryCode":"RU","neighbourhood":"","provider":"openstreetmap"}]},{"key":"Башкортостан, Чишминский р-н","value":[{"latitude":54.591680600000004,"longitude":55.39979497203329,"formattedAddress":"Чишминский поссовет, Чишминский район, Башкортостан, Приволжский федеральный округ, Россия","country":"Россия","state":"Башкортостан","countryCode":"RU","neighbourhood":"","provider":"openstreetmap"},{"latitude":54.5331151,"longitude":55.330735508530495,"formattedAddress":"Чишминский сельсовет, Чишминский район, Башкортостан, Приволжский федеральный округ, Россия","country":"Россия","state":"Башкортостан","countryCode":"RU","neighbourhood":"","provider":"openstreetmap"},{"latitude":55.342357050000004,"longitude":55.17792583372115,"formattedAddress":"Чишминский сельсовет, Бирский район, Башкортостан, Приволжский федеральный округ, Россия","country":"Россия","state":"Башкортостан","countryCode":"RU","neighbourhood":"","provider":"openstreetmap"},{"latitude":54.54969545,"longitude":55.41307359904255,"formattedAddress":"Чишминский район, Башкортостан, Приволжский федеральный округ, Россия","country":"Россия","state":"Башкортостан","countryCode":"RU","neighbourhood":"","provider":"openstreetmap"},{"latitude":56.1063855,"longitude":55.3941253,"formattedAddress":"Чишминский переулок, Тау, Месягутовский сельсовет, Янаульский район, Башкортостан, Приволжский федеральный округ, Россия","country":"Россия","city":"Тау","state":"Башкортостан","streetName":"Чишминский переулок","countryCode":"RU","neighbourhood":"","provider":"openstreetmap"},{"latitude":54.58762875,"longitude":55.38247246469906,"formattedAddress":"Средняя школа № 1, улица Ленина, Чишмы, Чишминский поссовет, Чишминский район, Башкортостан, Приволжский федеральный округ, 452150, Россия","country":"Россия","city":"Чишмы","state":"Башкортостан","zipcode":"452150","streetName":"улица Ленина","countryCode":"RU","neighbourhood":"","provider":"openstreetmap"},{"latitude":54.589301649999996,"longitude":55.38120679969903,"formattedAddress":"Администрация Чишминского района, 50, улица Кирова, Чишмы, Чишминский поссовет, Чишминский район, Башкортостан, Приволжский федеральный округ, 452170, Россия","country":"Россия","city":"Чишмы","state":"Башкортостан","zipcode":"452170","streetName":"улица Кирова","streetNumber":"50","countryCode":"RU","neighbourhood":"","provider":"openstreetmap"},{"latitude":54.5898949,"longitude":55.3803928,"formattedAddress":"Чишминский ЗАГС, улица Кирова, Чишмы, Чишминский поссовет, Чишминский район, Башкортостан, Приволжский федеральный округ, 452150, Россия","country":"Россия","city":"Чишмы","state":"Башкортостан","zipcode":"452150","streetName":"улица Кирова","countryCode":"RU","neighbourhood":"","provider":"openstreetmap"},{"latitude":54.5866563,"longitude":55.3878826,"formattedAddress":"Чишминский автовокзал, Трактовая улица, Чишмы, Чишминский поссовет, Чишминский район, Башкортостан, Приволжский федеральный округ, 452150, Россия","country":"Россия","city":"Чишмы","state":"Башкортостан","zipcode":"452150","streetName":"Трактовая улица","countryCode":"RU","neighbourhood":"","provider":"openstreetmap"}]},{"key":"Ханты-Мансийский","value":[{"latitude":61.0259025,"longitude":69.0982628,"formattedAddress":"Ханты, улица Мира, городской округ Ханты-Мансийск, Ханты-Мансийский автономный округ — Югра, Уральский федеральный округ, 628000, Россия","country":"Россия","city":"городской округ Ханты-Мансийск","state":"Ханты-Мансийский автономный округ — Югра","zipcode":"628000","streetName":"улица Мира","countryCode":"RU","neighbourhood":"","provider":"openstreetmap"},{"latitude":61.2495577,"longitude":63.0967185,"formattedAddress":"Мансийский, Советский район, Ханты-Мансийский автономный округ — Югра, Уральский федеральный округ, Россия","country":"Россия","state":"Ханты-Мансийский автономный округ — Югра","countryCode":"RU","neighbourhood":"","provider":"openstreetmap"}]},{"key":"Башкортостан, Альшеевский р-н, Раевский с","value":[{"latitude":54.068695,"longitude":54.941628,"formattedAddress":"Раевский, Раевский сельсовет, Альшеевский район, Башкортостан, Приволжский федеральный округ, 452120, Россия","country":"Россия","city":"Раевский","state":"Башкортостан","zipcode":"452120","countryCode":"RU","neighbourhood":"","provider":"openstreetmap"},{"latitude":54.08422235,"longitude":54.908475720434275,"formattedAddress":"Раевский сельсовет, Альшеевский район, Башкортостан, Приволжский федеральный округ, Россия","country":"Россия","state":"Башкортостан","countryCode":"RU","neighbourhood":"","provider":"openstreetmap"},{"latitude":54.0698115,"longitude":54.932370297827866,"formattedAddress":"Раевский мясо-комбинат, Раевский, Раевский сельсовет, Альшеевский район, Башкортостан, Приволжский федеральный округ, 452120, Россия","country":"Россия","city":"Раевский","state":"Башкортостан","zipcode":"452120","countryCode":"RU","neighbourhood":"","provider":"openstreetmap"},{"latitude":54.070885700000005,"longitude":54.93801868710176,"formattedAddress":"Раевский элеватор, Раевский, Раевский сельсовет, Альшеевский район, Башкортостан, Приволжский федеральный округ, 452120, Россия","country":"Россия","city":"Раевский","state":"Башкортостан","zipcode":"452120","countryCode":"RU","neighbourhood":"","provider":"openstreetmap"},{"latitude":54.0801535,"longitude":54.9491155,"formattedAddress":"Стерлитамак - Раевский, Раевский, Раевский сельсовет, Альшеевский район, Башкортостан, Приволжский федеральный округ, 452120, Россия","country":"Россия","city":"Раевский","state":"Башкортостан","zipcode":"452120","streetName":"Стерлитамак - Раевский","countryCode":"RU","neighbourhood":"","provider":"openstreetmap"},{"latitude":54.078032,"longitude":54.955783,"formattedAddress":"Стерлитамак - Раевский, Ибраевский сельсовет, Альшеевский район, Башкортостан, Приволжский федеральный округ, 452121, Россия","country":"Россия","state":"Башкортостан","zipcode":"452121","streetName":"Стерлитамак - Раевский","countryCode":"RU","neighbourhood":"","provider":"openstreetmap"},{"latitude":54.0711644,"longitude":54.920931853261585,"formattedAddress":"Раевская гимназия, улица Гагарина, Раевский, Раевский сельсовет, Альшеевский район, Башкортостан, Приволжский федеральный округ, 452120, Россия","country":"Россия","city":"Раевский","state":"Башкортостан","zipcode":"452120","streetName":"улица Гагарина","countryCode":"RU","neighbourhood":"","provider":"openstreetmap"},{"latitude":54.08078905,"longitude":54.922982112744094,"formattedAddress":"Раевский сахарный завод, Магистральная улица, Раевский, Раевский сельсовет, Альшеевский район, Башкортостан, Приволжский федеральный округ, 452120, Россия","country":"Россия","city":"Раевский","state":"Башкортостан","zipcode":"452120","streetName":"Магистральная улица","countryCode":"RU","neighbourhood":"","provider":"openstreetmap"},{"latitude":54.061051,"longitude":54.929339589803206,"formattedAddress":"Раевский автовокзал, 110, Коммунистическая улица, Раевский, Раевский сельсовет, Альшеевский район, Башкортостан, Приволжский федеральный округ, 452121, Россия","country":"Россия","city":"Раевский","state":"Башкортостан","zipcode":"452121","streetName":"Коммунистическая улица","streetNumber":"110","countryCode":"RU","neighbourhood":"","provider":"openstreetmap"}]},{"key":"Башкортостан, Орджоникидзевский","value":[{"latitude":54.86657245,"longitude":56.10429206693432,"formattedAddress":"Орджоникидзевский район, городской округ Уфа, Башкортостан, Приволжский федеральный округ, Россия","country":"Россия","state":"Башкортостан","countryCode":"RU","neighbourhood":"","provider":"openstreetmap"},{"latitude":54.8246652,"longitude":56.082408657207154,"formattedAddress":"Отдел полиции №5, УВД по г.Уфе, Орджоникидзевский район, улица Победы, Орджоникидзевский район, Уфа, городской округ Уфа, Башкортостан, Приволжский федеральный округ, 450000, Россия","country":"Россия","city":"Уфа","state":"Башкортостан","zipcode":"450000","streetName":"улица Победы","countryCode":"RU","neighbourhood":"","provider":"openstreetmap"},{"latitude":54.82910925,"longitude":56.06977141466637,"formattedAddress":"Орджоникидзевский оптово-розничный рынок, Садовая улица, Орджоникидзевский район, Уфа, городской округ Уфа, Башкортостан, Приволжский федеральный округ, 450000, Россия","country":"Россия","city":"Уфа","state":"Башкортостан","zipcode":"450000","streetName":"Садовая улица","countryCode":"RU","neighbourhood":"","provider":"openstreetmap"},{"latitude":54.814245400000004,"longitude":56.07228813945737,"formattedAddress":"Межрайонная инспекция Федеральной налоговой службы № 31 по Республике Башкортостан (Код ИФНС 0273), 18, улица Ульяновых, Орджоникидзевский район, Уфа, городской округ Уфа, Башкортостан, Приволжский федеральный округ, 450112, Россия","country":"Россия","city":"Уфа","state":"Башкортостан","zipcode":"450112","streetName":"улица Ульяновых","streetNumber":"18","countryCode":"RU","neighbourhood":"","provider":"openstreetmap"}]},{"key":"Башкортостан, Мечетлинский р-н, Алегазово с","value":[{"latitude":55.939159,"longitude":58.130169,"formattedAddress":"Алегазово, Алегазовский сельсовет, Мечетлинский район, Башкортостан, Приволжский федеральный округ, Россия","country":"Россия","city":"Алегазово","state":"Башкортостан","countryCode":"RU","neighbourhood":"","provider":"openstreetmap"}]},{"key":"Башкортостан, Дуванский р-н, Дуван с","value":[{"latitude":55.692806,"longitude":57.899502,"formattedAddress":"Дуван, Дуванский сельсовет, Дуванский район, Башкортостан, Приволжский федеральный округ, 452534, Россия","country":"Россия","city":"Дуван","state":"Башкортостан","zipcode":"452534","countryCode":"RU","neighbourhood":"","provider":"openstreetmap"}]},{"key":"Башкортостан, Бакалинский р-н, Бакалы с","value":[{"latitude":55.1811919,"longitude":53.7990407,"formattedAddress":"Бакалы, Бакалинский сельсовет, Бакалинский район, Башкортостан, Приволжский федеральный округ, Россия","country":"Россия","city":"Бакалы","state":"Башкортостан","countryCode":"RU","neighbourhood":"","provider":"openstreetmap"},{"latitude":55.18063025,"longitude":53.79132250407655,"formattedAddress":"Гузель ООО Общепит, Бакалы, Бакалинский сельсовет, Бакалинский район, Башкортостан, Приволжский федеральный округ, Россия","country":"Россия","city":"Бакалы","state":"Башкортостан","countryCode":"RU","neighbourhood":"","provider":"openstreetmap"}]},{"key":"Башкортостан, Караидельский р-н, Старые Багазы д","value":[{"latitude":55.882221,"longitude":56.88361,"formattedAddress":"Старые Багазы, Караидельский сельсовет, Караидельский район, Башкортостан, Приволжский федеральный округ, Россия","country":"Россия","city":"Старые Багазы","state":"Башкортостан","countryCode":"RU","neighbourhood":"","provider":"openstreetmap"}]},{"key":"Башкортостан, Гафурийский р-н, Явгильды д","value":[{"latitude":54.1490908,"longitude":56.5193497,"formattedAddress":"Явгильды, Бурлинский сельсовет, Гафурийский район, Башкортостан, Приволжский федеральный округ, Россия","country":"Россия","city":"Явгильды","state":"Башкортостан","countryCode":"RU","neighbourhood":"","provider":"openstreetmap"}]},{"key":"Башкортостан, Мишкинский р-н, Мишкино с","value":[{"latitude":55.531227,"longitude":55.970352,"formattedAddress":"Мишкино, Мишкинский сельсовет, Мишкинский район, Башкортостан, Приволжский федеральный округ, Россия","country":"Россия","city":"Мишкино","state":"Башкортостан","countryCode":"RU","neighbourhood":"","provider":"openstreetmap"}]},{"key":"Башкортостан, Бакалинский р-н, Старые Шарашли с","value":[{"latitude":55.222883,"longitude":53.766744,"formattedAddress":"Старые Шарашли, Старошарашлинский сельсовет, Бакалинский район, Башкортостан, Приволжский федеральный округ, Россия","country":"Россия","city":"Старые Шарашли","state":"Башкортостан","countryCode":"RU","neighbourhood":"","provider":"openstreetmap"}]},{"key":"Башкортостан, Ермекеевский р-н, Ермекеево с","value":[{"latitude":54.073929,"longitude":53.671932,"formattedAddress":"Ермекеево, Ермекеевский сельсовет, Ермекеевский район, Башкортостан, Приволжский федеральный округ, Россия","country":"Россия","city":"Ермекеево","state":"Башкортостан","countryCode":"RU","neighbourhood":"","provider":"openstreetmap"},{"latitude":53.9617176,"longitude":53.6966616,"formattedAddress":"улица Ново-Ермекеево, Новоермекеево, Спартакский сельсовет, Ермекеевский район, Башкортостан, Приволжский федеральный округ, 452182, Россия","country":"Россия","city":"Новоермекеево","state":"Башкортостан","zipcode":"452182","streetName":"улица Ново-Ермекеево","countryCode":"RU","neighbourhood":"","provider":"openstreetmap"}]},{"key":"Башкортостан, Ишимбайский р-н, Уразбаево д","value":[{"latitude":53.334709,"longitude":56.343117,"formattedAddress":"Уразбаево, Иткуловский сельсовет, Ишимбайский район, Башкортостан, Приволжский федеральный округ, Россия","country":"Россия","city":"Уразбаево","state":"Башкортостан","countryCode":"RU","neighbourhood":"","provider":"openstreetmap"}]},{"key":"Башкортостан, Миякинский р-н, Ильчигулово с","value":[{"latitude":53.822968,"longitude":54.996704,"formattedAddress":"Ильчигулово, Ильчигуловский сельсовет, Миякинский район, Башкортостан, Приволжский федеральный округ, Россия","country":"Россия","city":"Ильчигулово","state":"Башкортостан","countryCode":"RU","neighbourhood":"","provider":"openstreetmap"}]},{"key":"Республика, Кировский","value":[{"latitude":54.932121,"longitude":56.992039,"formattedAddress":"Кировский, Улу-Телякский сельсовет, Иглинский район, Башкортостан, Приволжский федеральный округ, Россия","country":"Россия","city":"Кировский","state":"Башкортостан","countryCode":"RU","neighbourhood":"","provider":"openstreetmap"},{"latitude":47.649326,"longitude":44.503979,"formattedAddress":"Кировский, Кировское сельское поселение, Сарпинский район, Республика Калмыкия, Южный федеральный округ, Россия","country":"Россия","city":"Кировский","state":"Республика Калмыкия","countryCode":"RU","neighbourhood":"","provider":"openstreetmap"},{"latitude":46.8569351,"longitude":29.6276841,"formattedAddress":"Кировский, Тирасполь, Unitățile administrativ-teritoriale din stînga Nistrului, Нистрения / Приднестровье / Придністров'я, MD 3300, Moldova","country":"Moldova","city":"Тирасполь","state":"Нистрения / Приднестровье / Придністров'я","zipcode":"MD 3300","countryCode":"MD","neighbourhood":"","provider":"openstreetmap"},{"latitude":46.10297,"longitude":45.097481,"formattedAddress":"Хар Толга, Хартолгинское сельское поселение, Яшкульский район, Республика Калмыкия, Южный федеральный округ, Россия","country":"Россия","city":"Хар Толга","state":"Республика Калмыкия","countryCode":"RU","neighbourhood":"","provider":"openstreetmap"},{"latitude":46.12773,"longitude":45.1108847,"formattedAddress":"Кировский, Цаган-Уснское сельское поселение, Яшкульский район, Республика Калмыкия, Южный федеральный округ, 359408, Россия","country":"Россия","state":"Республика Калмыкия","zipcode":"359408","countryCode":"RU","neighbourhood":"","provider":"openstreetmap"},{"latitude":55.389256,"longitude":56.6203,"formattedAddress":"Кировка, Красноключевский сельсовет, Нуримановский район, Башкортостан, Приволжский федеральный округ, Россия","country":"Россия","city":"Кировка","state":"Башкортостан","countryCode":"RU","neighbourhood":"","provider":"openstreetmap"},{"latitude":54.9643198,"longitude":82.936589,"formattedAddress":"Республика, улица Ватутина, Кировский район, городской округ Новосибирск, Новосибирская область, Сибирский федеральный округ, 630000, Россия","country":"Россия","city":"городской округ Новосибирск","state":"Новосибирская область","zipcode":"630000","streetName":"улица Ватутина","countryCode":"RU","neighbourhood":"","provider":"openstreetmap"},{"latitude":60.335119,"longitude":49.6041631,"formattedAddress":"Кировский, улица Мира, Объячево, сельское поселение Объячево, Прилузский район, Республика Коми, Северо-Западный федеральный округ, 168130, Россия","country":"Россия","city":"Объячево","state":"Республика Коми","zipcode":"168130","streetName":"улица Мира","countryCode":"RU","neighbourhood":"","provider":"openstreetmap"},{"latitude":54.1717047,"longitude":45.17768939830637,"formattedAddress":"Кировский, 54, улица Александра Невского, Юго-Запад, Саранск, городской округ Саранск, Мордовия, Приволжский федеральный округ, 430000, Россия","country":"Россия","city":"Саранск","state":"Мордовия","zipcode":"430000","streetName":"улица Александра Невского","streetNumber":"54","countryCode":"RU","neighbourhood":"","provider":"openstreetmap"},{"latitude":56.631224849999995,"longitude":47.928463823232924,"formattedAddress":"Кировский, 9Б, улица Кирова, Театральный, Йошкар-Ола, Марий Эл, Приволжский федеральный округ, 424038, Россия","country":"Россия","city":"Йошкар-Ола","state":"Марий Эл","zipcode":"424038","streetName":"улица Кирова","streetNumber":"9Б","countryCode":"RU","neighbourhood":"Театральный","provider":"openstreetmap"}]},{"key":"РБ, с. Шигево","value":[]},{"key":"Краснодарский","value":[{"latitude":48.30266485,"longitude":39.96096745,"formattedAddress":"Краснодарский, Центральна вулиця, Краснодарський, Луганська область, 94446, Україна","country":"Україна","city":"Краснодарський","state":"Луганська область","zipcode":"94446","streetName":"Центральна вулиця","countryCode":"UA","neighbourhood":"","provider":"openstreetmap"},{"latitude":48.29727,"longitude":39.96208,"formattedAddress":"Краснодарський, Луганська область, Україна","country":"Україна","city":"Краснодарський","state":"Луганська область","countryCode":"UA","neighbourhood":"","provider":"openstreetmap"},{"latitude":45.282495,"longitude":38.3191998,"formattedAddress":"Краснодарский, Октябрьское сельское поселение, Красноармейский район, Краснодарский край, Южный федеральный округ, 353829, Россия","country":"Россия","city":"Краснодарский","state":"Краснодарский край","zipcode":"353829","countryCode":"RU","neighbourhood":"","provider":"openstreetmap"},{"latitude":42.6922934,"longitude":44.4953799,"formattedAddress":"Краснодарский, ყაზბეგის მუნიციპალიტეტი, მცხეთა-მთიანეთი, საქართველო","country":"საქართველო","state":"მცხეთა-მთიანეთი","countryCode":"GE","neighbourhood":"","provider":"openstreetmap"},{"latitude":45.0861439,"longitude":39.042759,"formattedAddress":"Краснодарский, городской округ Краснодар, Краснодарский край, Южный федеральный округ, 350073, Россия","country":"Россия","city":"Краснодарский","state":"Краснодарский край","zipcode":"350073","countryCode":"RU","neighbourhood":"","provider":"openstreetmap"},{"latitude":45.3947832,"longitude":41.2125893,"formattedAddress":"Краснодарский, Новоалександровский городской округ, Ставропольский край, Северо-Кавказский федеральный округ, 356023, Россия","country":"Россия","city":"Краснодарский","state":"Ставропольский край","zipcode":"356023","countryCode":"RU","neighbourhood":"","provider":"openstreetmap"},{"latitude":44.76545815,"longitude":39.903237250000004,"formattedAddress":"Краснодарский, 80, Краснодарская улица, Белореченск, Белореченское городское поселение, Белореченский район, Краснодарский край, Южный федеральный округ, 352631, Россия","country":"Россия","city":"Белореченск","state":"Краснодарский край","zipcode":"352631","streetName":"Краснодарская улица","streetNumber":"80","countryCode":"RU","neighbourhood":"","provider":"openstreetmap"}]},{"key":"Башкортостан, Уфимский р-н, Шамонино д","value":[{"latitude":54.666424,"longitude":56.209927,"formattedAddress":"Шамонино, Русско-Юрмашский сельсовет, Уфимский район, Башкортостан, Приволжский федеральный округ, 450521, Россия","country":"Россия","city":"Шамонино","state":"Башкортостан","zipcode":"450521","countryCode":"RU","neighbourhood":"","provider":"openstreetmap"},{"latitude":54.65649725,"longitude":56.210863046744535,"formattedAddress":"МОБУ СОШ д. Шамонино, улица Мустая Карима, Южная, Шамонино, Русско-Юрмашский сельсовет, Уфимский район, Башкортостан, Приволжский федеральный округ, 450521, Россия","country":"Россия","city":"Шамонино","state":"Башкортостан","zipcode":"450521","streetName":"улица Мустая Карима","countryCode":"RU","neighbourhood":"","provider":"openstreetmap"},{"latitude":54.6655459,"longitude":56.209273007721876,"formattedAddress":"ОП ППС д. Шамонино ПЧ-4, Степная улица, Шамонино, Русско-Юрмашский сельсовет, Уфимский район, Башкортостан, Приволжский федеральный округ, 450521, Россия","country":"Россия","city":"Шамонино","state":"Башкортостан","zipcode":"450521","streetName":"Степная улица","countryCode":"RU","neighbourhood":"","provider":"openstreetmap"}]},{"key":"Башкортостан, Гафурийский р-н, Белое Озеро с","value":[{"latitude":53.995216,"longitude":56.231503,"formattedAddress":"Белое Озеро, Белоозерский сельсовет, Гафурийский район, Башкортостан, Приволжский федеральный округ, 453070, Россия","country":"Россия","city":"Белое Озеро","state":"Башкортостан","zipcode":"453070","countryCode":"RU","neighbourhood":"","provider":"openstreetmap"},{"latitude":53.9974052,"longitude":56.2347658,"formattedAddress":"Белое Озеро, Восточная улица, Белое Озеро, Белоозерский сельсовет, Гафурийский район, Башкортостан, Приволжский федеральный округ, 453070, Россия","country":"Россия","city":"Белое Озеро","state":"Башкортостан","zipcode":"453070","streetName":"Восточная улица","countryCode":"RU","neighbourhood":"","provider":"openstreetmap"},{"latitude":53.99741845,"longitude":56.23428210731083,"formattedAddress":"Белое Озеро, Восточная улица, Белое Озеро, Белоозерский сельсовет, Гафурийский район, Башкортостан, Приволжский федеральный округ, 453070, Россия","country":"Россия","city":"Белое Озеро","state":"Башкортостан","zipcode":"453070","streetName":"Восточная улица","countryCode":"RU","neighbourhood":"","provider":"openstreetmap"}]},{"key":"Башкортостан, Мелеузовский р-н","value":[{"latitude":53.10393055,"longitude":56.242602207821136,"formattedAddress":"Мелеузовский район, Башкортостан, Приволжский федеральный округ, Россия","country":"Россия","state":"Башкортостан","countryCode":"RU","neighbourhood":"","provider":"openstreetmap"},{"latitude":52.96585555,"longitude":55.86629998717229,"formattedAddress":"Мелеузовский сельсовет, Мелеузовский район, Башкортостан, Приволжский федеральный округ, Россия","country":"Россия","state":"Башкортостан","countryCode":"RU","neighbourhood":"","provider":"openstreetmap"},{"latitude":53.018831750000004,"longitude":56.63547857972705,"formattedAddress":"Национальный парк «Башкирия», Мелеузовский район, Башкортостан, Приволжский федеральный округ, Россия","country":"Россия","state":"Башкортостан","countryCode":"RU","neighbourhood":"","provider":"openstreetmap"},{"latitude":52.937441,"longitude":55.91335528616259,"formattedAddress":"Мелеузовский ПивЗавод, Мелеуз, городское поселение Мелеуз, Мелеузовский район, Башкортостан, Приволжский федеральный округ, 453851, Россия","country":"Россия","city":"Мелеуз","state":"Башкортостан","zipcode":"453851","countryCode":"RU","neighbourhood":"","provider":"openstreetmap"},{"latitude":52.9979321,"longitude":55.91694558202507,"formattedAddress":"Мелеузовский сахарный завод, Мелеуз, городское поселение Мелеуз, Мелеузовский район, Башкортостан, Приволжский федеральный округ, Россия","country":"Россия","city":"Мелеуз","state":"Башкортостан","countryCode":"RU","neighbourhood":"","provider":"openstreetmap"},{"latitude":52.965726950000004,"longitude":55.927081871735965,"formattedAddress":"Мелеузовский механико-технологический техникум, 200, улица Ленина, 32-й микрорайон, Мелеуз, городское поселение Мелеуз, Мелеузовский район, Башкортостан, Приволжский федеральный округ, 453850Ь, Россия","country":"Россия","city":"Мелеуз","state":"Башкортостан","zipcode":"453850Ь","streetName":"улица Ленина","streetNumber":"200","countryCode":"RU","neighbourhood":"32-й микрорайон","provider":"openstreetmap"}]},{"key":"Башкортостан, Кармаскалинский р-н, Константиновка д","value":[{"latitude":54.415897,"longitude":56.159168,"formattedAddress":"Константиновка, Николаевский сельсовет, Кармаскалинский район, Башкортостан, Приволжский федеральный округ, Россия","country":"Россия","city":"Константиновка","state":"Башкортостан","countryCode":"RU","neighbourhood":"","provider":"openstreetmap"}]},{"key":"Башкортостан, Языково с","value":[{"latitude":55.216618,"longitude":56.137703,"formattedAddress":"Языково, Новонадеждинский сельсовет, Благовещенский район, Башкортостан, Приволжский федеральный округ, Россия","country":"Россия","city":"Языково","state":"Башкортостан","countryCode":"RU","neighbourhood":"","provider":"openstreetmap"},{"latitude":54.670391699999996,"longitude":54.789765246779496,"formattedAddress":"ЛПДС \"Языково\", Первомайский, Первомайский сельсовет, Благоварский район, Башкортостан, Приволжский федеральный округ, Россия","country":"Россия","city":"Первомайский","state":"Башкортостан","countryCode":"RU","neighbourhood":"","provider":"openstreetmap"},{"latitude":54.6720142,"longitude":54.787675165542815,"formattedAddress":"ЛПДС \"Языково\" Транснефть, Первомайский, Первомайский сельсовет, Благоварский район, Башкортостан, Приволжский федеральный округ, Россия","country":"Россия","city":"Первомайский","state":"Башкортостан","countryCode":"RU","neighbourhood":"","provider":"openstreetmap"},{"latitude":54.691818,"longitude":55.01387,"formattedAddress":"Языково, Языковский сельсовет, Благоварский район, Башкортостан, Приволжский федеральный округ, Россия","country":"Россия","city":"Языково","state":"Башкортостан","countryCode":"RU","neighbourhood":"","provider":"openstreetmap"},{"latitude":54.689713850000004,"longitude":55.02411474006972,"formattedAddress":"Автостанция Языково, улица Пушкина, Языково, Языковский сельсовет, Благоварский район, Башкортостан, Приволжский федеральный округ, 452740, Россия","country":"Россия","city":"Языково","state":"Башкортостан","zipcode":"452740","streetName":"улица Пушкина","countryCode":"RU","neighbourhood":"","provider":"openstreetmap"}]},{"key":"Башкортостан, Уфимский р-н, Миловка с","value":[{"latitude":54.78017,"longitude":55.834316,"formattedAddress":"Миловка, Миловский сельсовет, Уфимский район, Башкортостан, Приволжский федеральный округ, 450519, Россия","country":"Россия","city":"Миловка","state":"Башкортостан","zipcode":"450519","countryCode":"RU","neighbourhood":"","provider":"openstreetmap"}]},{"key":"Башкортостан, Чишминский р-н, Чишмы рп","value":[{"latitude":54.58968,"longitude":55.385605,"formattedAddress":"Чишмы, Чишминский поссовет, Чишминский район, Башкортостан, Приволжский федеральный округ, Россия","country":"Россия","city":"Чишмы","state":"Башкортостан","countryCode":"RU","neighbourhood":"","provider":"openstreetmap"},{"latitude":54.576839,"longitude":55.373562,"formattedAddress":"Чишмы, Чишминский сельсовет, Чишминский район, Башкортостан, Приволжский федеральный округ, 452150, Россия","country":"Россия","city":"Чишмы","state":"Башкортостан","zipcode":"452150","countryCode":"RU","neighbourhood":"","provider":"openstreetmap"}]},{"key":"Башкортостан, Гафурийский р-н, Табынское с","value":[{"latitude":53.988159,"longitude":56.38913,"formattedAddress":"Табынское, Табынский сельсовет, Гафурийский район, Башкортостан, Приволжский федеральный округ, Россия","country":"Россия","city":"Табынское","state":"Башкортостан","countryCode":"RU","neighbourhood":"","provider":"openstreetmap"},{"latitude":53.92411165,"longitude":56.53214890564381,"formattedAddress":"Церковь Табынской иконы Божьей Матери, Ключевая улица, Курорта, Красноусольский сельсовет, Гафурийский район, Башкортостан, Приволжский федеральный округ, 453051, Россия","country":"Россия","city":"Курорта","state":"Башкортостан","zipcode":"453051","streetName":"Ключевая улица","countryCode":"RU","neighbourhood":"","provider":"openstreetmap"},{"latitude":53.9240455,"longitude":56.5315318,"formattedAddress":"святой источник Табынской Божьей Матери, Ключевая улица, Курорта, Красноусольский сельсовет, Гафурийский район, Башкортостан, Приволжский федеральный округ, 453051, Россия","country":"Россия","city":"Курорта","state":"Башкортостан","zipcode":"453051","streetName":"Ключевая улица","countryCode":"RU","neighbourhood":"","provider":"openstreetmap"}]},{"key":"Башкортостан, Уфимский р-н, Чесноковка с","value":[{"latitude":54.613014,"longitude":55.937176,"formattedAddress":"Чесноковка, Чесноковский сельсовет, Уфимский район, Башкортостан, Приволжский федеральный округ, 450591, Россия","country":"Россия","city":"Чесноковка","state":"Башкортостан","zipcode":"450591","countryCode":"RU","neighbourhood":"","provider":"openstreetmap"}]},{"key":"Самарская, Борский р-н, Гвардейцы с","value":[{"latitude":52.90906745,"longitude":51.508540538851435,"formattedAddress":"сельское поселение Гвардейцы, Борский район, Самарская область, Приволжский федеральный округ, Россия","country":"Россия","state":"Самарская область","countryCode":"RU","neighbourhood":"","provider":"openstreetmap"},{"latitude":52.995796,"longitude":51.5858,"formattedAddress":"Гвардейцы, сельское поселение Гвардейцы, Борский район, Самарская область, Приволжский федеральный округ, Россия","country":"Россия","city":"Гвардейцы","state":"Самарская область","countryCode":"RU","neighbourhood":"","provider":"openstreetmap"},{"latitude":52.9874722,"longitude":51.5863822,"formattedAddress":"«Борское — Таволжанка» — Гвардейцы — Благодаровка, сельское поселение Гвардейцы, Борский район, Самарская область, Приволжский федеральный округ, Россия","country":"Россия","state":"Самарская область","streetName":"«Борское — Таволжанка» — Гвардейцы — Благодаровка","countryCode":"RU","neighbourhood":"","provider":"openstreetmap"},{"latitude":52.9483514,"longitude":51.5389998,"formattedAddress":"«Борское — Таволжанка» — Гвардейцы — Благодаровка, Покровка, сельское поселение Гвардейцы, Борский район, Самарская область, Приволжский федеральный округ, Россия","country":"Россия","city":"Покровка","state":"Самарская область","streetName":"«Борское — Таволжанка» — Гвардейцы — Благодаровка","countryCode":"RU","neighbourhood":"","provider":"openstreetmap"},{"latitude":52.8490063,"longitude":51.4597356,"formattedAddress":"«Борское — Таволжанка» — Гвардейцы — Благодаровка, Благодаровка, сельское поселение Гвардейцы, Борский район, Самарская область, Приволжский федеральный округ, Россия","country":"Россия","city":"Благодаровка","state":"Самарская область","streetName":"«Борское — Таволжанка» — Гвардейцы — Благодаровка","countryCode":"RU","neighbourhood":"","provider":"openstreetmap"},{"latitude":52.9647976,"longitude":51.6981423,"formattedAddress":"«Гвардейцы — Мойка» — Заплавное, Заплавное, сельское поселение Заплавное, Борский район, Самарская область, Приволжский федеральный округ, 446673, Россия","country":"Россия","city":"Заплавное","state":"Самарская область","zipcode":"446673","streetName":"«Гвардейцы — Мойка» — Заплавное","countryCode":"RU","neighbourhood":"","provider":"openstreetmap"},{"latitude":52.987525,"longitude":51.5769464,"formattedAddress":"«Борское — Таволжанка» — Гвардейцы — Благодаровка, сельское поселение Гвардейцы, Борский район, Самарская область, Приволжский федеральный округ, Россия","country":"Россия","state":"Самарская область","streetName":"«Борское — Таволжанка» — Гвардейцы — Благодаровка","countryCode":"RU","neighbourhood":"","provider":"openstreetmap"},{"latitude":53.0104685,"longitude":51.5184663,"formattedAddress":"«Виловатое — Гвардейцы» — Широченка, Широченка, сельское поселение Гвардейцы, Борский район, Самарская область, Приволжский федеральный округ, Россия","country":"Россия","city":"Широченка","state":"Самарская область","streetName":"«Виловатое — Гвардейцы» — Широченка","countryCode":"RU","neighbourhood":"","provider":"openstreetmap"},{"latitude":52.99263035,"longitude":51.5923504,"formattedAddress":"ООШ с. Гвардейцы, 2, Школьная улица, Гвардейцы, сельское поселение Гвардейцы, Борский район, Самарская область, Приволжский федеральный округ, Россия","country":"Россия","city":"Гвардейцы","state":"Самарская область","streetName":"Школьная улица","streetNumber":"2","countryCode":"RU","neighbourhood":"","provider":"openstreetmap"},{"latitude":53.020518,"longitude":51.4697071,"formattedAddress":"«Богатое — Алексеевка» — Виловатое — Гвардейцы, Виловатое, сельское поселение Виловатое, Богатовский район, Самарская область, Приволжский федеральный округ, 446691, Россия","country":"Россия","city":"Виловатое","state":"Самарская область","zipcode":"446691","streetName":"«Богатое — Алексеевка» — Виловатое — Гвардейцы","countryCode":"RU","neighbourhood":"","provider":"openstreetmap"}]},{"key":"Башкортостан, Аскинский р-н","value":[{"latitude":56.2439,"longitude":56.250801,"formattedAddress":"Башкортостан, Казанчинский сельсовет, Аскинский район, Башкортостан, Приволжский федеральный округ, Россия","country":"Россия","city":"Башкортостан","state":"Башкортостан","countryCode":"RU","neighbourhood":"","provider":"openstreetmap"}]},{"key":"Татарстан, Альметьевский р-н","value":[{"latitude":54.90465895,"longitude":52.31468827503831,"formattedAddress":"Татарстан, 2А/1, улица Ленина, Альметьевск, Альметьевский район, Татарстан, Приволжский федеральный округ, 423450, Россия","country":"Россия","city":"Альметьевск","state":"Татарстан","zipcode":"423450","streetName":"улица Ленина","streetNumber":"2А/1","countryCode":"RU","neighbourhood":"","provider":"openstreetmap"}]},{"key":"Башкортостан, Уфимский р-н, Чернолесовский с","value":[{"latitude":54.861874,"longitude":55.807316,"formattedAddress":"Чернолесовский, Красноярский сельсовет, Уфимский район, Башкортостан, Приволжский федеральный округ, Россия","country":"Россия","city":"Чернолесовский","state":"Башкортостан","countryCode":"RU","neighbourhood":"","provider":"openstreetmap"}]},{"key":"Оренбургская, Октябрьский р-н, Октябрьское с","value":[{"latitude":52.345226,"longitude":55.507576,"formattedAddress":"Октябрьское, Октябрьский сельсовет, Октябрьский район, Оренбургская область, Приволжский федеральный округ, Россия","country":"Россия","city":"Октябрьское","state":"Оренбургская область","countryCode":"RU","neighbourhood":"","provider":"openstreetmap"},{"latitude":52.3388573,"longitude":55.5219844,"formattedAddress":"Подъезд к с. Октябрьское, Октябрьское, Октябрьский сельсовет, Октябрьский район, Оренбургская область, Приволжский федеральный округ, Россия","country":"Россия","city":"Октябрьское","state":"Оренбургская область","streetName":"Подъезд к с. Октябрьское","countryCode":"RU","neighbourhood":"","provider":"openstreetmap"},{"latitude":52.3310467,"longitude":55.4157668,"formattedAddress":"Октябрьское - Комиссарово, Октябрьское, Октябрьский сельсовет, Октябрьский район, Оренбургская область, Приволжский федеральный округ, Россия","country":"Россия","city":"Октябрьское","state":"Оренбургская область","streetName":"Октябрьское - Комиссарово","countryCode":"RU","neighbourhood":"","provider":"openstreetmap"},{"latitude":52.343447,"longitude":55.4801235,"formattedAddress":"Подъезд к с. Октябрьское, Октябрьское, Октябрьский сельсовет, Октябрьский район, Оренбургская область, Приволжский федеральный округ, Россия","country":"Россия","city":"Октябрьское","state":"Оренбургская область","streetName":"Подъезд к с. Октябрьское","countryCode":"RU","neighbourhood":"","provider":"openstreetmap"},{"latitude":52.3029025,"longitude":55.5786921,"formattedAddress":"Октябрьское – Благодарное, Краснооктябрьский, Краснооктябрьский сельсовет, Октябрьский район, Оренбургская область, Приволжский федеральный округ, Россия","country":"Россия","city":"Краснооктябрьский","state":"Оренбургская область","streetName":"Октябрьское – Благодарное","countryCode":"RU","neighbourhood":"","provider":"openstreetmap"},{"latitude":52.254699,"longitude":55.0361544,"formattedAddress":"Октябрьское - Комиссарово, Ивановка, Уранбашский сельсовет, Октябрьский район, Оренбургская область, Приволжский федеральный округ, Россия","country":"Россия","city":"Ивановка","state":"Оренбургская область","streetName":"Октябрьское - Комиссарово","countryCode":"RU","neighbourhood":"","provider":"openstreetmap"},{"latitude":52.2861316,"longitude":54.8186207,"formattedAddress":"Октябрьское - Комиссарово, Комиссарово, Комиссаровский сельсовет, Октябрьский район, Оренбургская область, Приволжский федеральный округ, Россия","country":"Россия","city":"Комиссарово","state":"Оренбургская область","streetName":"Октябрьское - Комиссарово","countryCode":"RU","neighbourhood":"","provider":"openstreetmap"},{"latitude":52.5395467,"longitude":55.3919283,"formattedAddress":"Октябрьское — Кузьминовка, Верхний Гумбет, Нижнегумбетовский сельсовет, Октябрьский район, Оренбургская область, Приволжский федеральный округ, Россия","country":"Россия","city":"Верхний Гумбет","state":"Оренбургская область","streetName":"Октябрьское — Кузьминовка","countryCode":"RU","neighbourhood":"","provider":"openstreetmap"},{"latitude":52.3090834,"longitude":55.3177844,"formattedAddress":"Октябрьское - Комиссарово, Марьевский сельсовет, Октябрьский район, Оренбургская область, Приволжский федеральный округ, Россия","country":"Россия","state":"Оренбургская область","streetName":"Октябрьское - Комиссарово","countryCode":"RU","neighbourhood":"","provider":"openstreetmap"},{"latitude":52.4347097,"longitude":55.4454047,"formattedAddress":"Октябрьское — Кузьминовка, Морозовский, Октябрьский сельсовет, Октябрьский район, Оренбургская область, Приволжский федеральный округ, Россия","country":"Россия","city":"Морозовский","state":"Оренбургская область","streetName":"Октябрьское — Кузьминовка","countryCode":"RU","neighbourhood":"","provider":"openstreetmap"}]},{"key":"Челябинская","value":[{"latitude":56.39631,"longitude":61.9377777,"formattedAddress":"Челябинская, Алюминиевая улица, Южный, Красногорский район, Каменск-Уральский, городской округ Каменск-Уральский, Свердловская область, Уральский федеральный округ, 623408, Россия","country":"Россия","city":"Каменск-Уральский","state":"Свердловская область","zipcode":"623408","streetName":"Алюминиевая улица","countryCode":"RU","neighbourhood":"","provider":"openstreetmap"}]},{"key":"Башкортостан, Чишминский р-н, Чувалкипово с","value":[{"latitude":54.36787,"longitude":55.426182,"formattedAddress":"Чувалкипово, Чувалкиповский сельсовет, Чишминский район, Башкортостан, Приволжский федеральный округ, Россия","country":"Россия","city":"Чувалкипово","state":"Башкортостан","countryCode":"RU","neighbourhood":"","provider":"openstreetmap"}]},{"key":"Башкортостан, Нагаево с","value":[{"latitude":55.5849275,"longitude":56.500275,"formattedAddress":"Седяш-Нагаево, Урюш-Битуллинский сельсовет, Караидельский район, Башкортостан, Приволжский федеральный округ, Россия","country":"Россия","city":"Седяш-Нагаево","state":"Башкортостан","countryCode":"RU","neighbourhood":"","provider":"openstreetmap"},{"latitude":54.62495,"longitude":56.102558,"formattedAddress":"Нагаево, городской округ Уфа, Башкортостан, Приволжский федеральный округ, 450900, Россия","country":"Россия","city":"Нагаево","state":"Башкортостан","zipcode":"450900","countryCode":"RU","neighbourhood":"","provider":"openstreetmap"},{"latitude":54.6138992,"longitude":56.0785713,"formattedAddress":"Нагаево, 98, Парадная улица, Октябрьский район, Нагаево, городской округ Уфа, Башкортостан, Приволжский федеральный округ, 450900, Россия","country":"Россия","city":"Нагаево","state":"Башкортостан","zipcode":"450900","streetName":"Парадная улица","streetNumber":"98","countryCode":"RU","neighbourhood":"","provider":"openstreetmap"},{"latitude":54.61710815,"longitude":56.10215858562829,"formattedAddress":"Муниципальная пожарная часть с. Нагаево, 9, Озёрная улица, Октябрьский район, Нагаево, городской округ Уфа, Башкортостан, Приволжский федеральный округ, 450900, Россия","country":"Россия","city":"Нагаево","state":"Башкортостан","zipcode":"450900","streetName":"Озёрная улица","streetNumber":"9","countryCode":"RU","neighbourhood":"","provider":"openstreetmap"},{"latitude":54.6218197,"longitude":56.1155623,"formattedAddress":"Садовый центр Абдуллиных в Нагаево, Рощинская улица, Октябрьский район, Нагаево, городской округ Уфа, Башкортостан, Приволжский федеральный округ, 450900, Россия","country":"Россия","city":"Нагаево","state":"Башкортостан","zipcode":"450900","streetName":"Рощинская улица","countryCode":"RU","neighbourhood":"","provider":"openstreetmap"}]},{"key":"Удмуртская","value":[{"latitude":57.1961165,"longitude":52.6959832,"formattedAddress":"Удмуртия, Приволжский федеральный округ, Россия","country":"Россия","state":"Удмуртия","countryCode":"RU","neighbourhood":"","provider":"openstreetmap"},{"latitude":57.0031756,"longitude":52.1474111,"formattedAddress":"Удмуртская Тукля, Ува, Увинское сельское поселение, Увинский район, Удмуртия, Приволжский федеральный округ, 427264, Россия","country":"Россия","city":"Ува","state":"Удмуртия","zipcode":"427264","countryCode":"RU","neighbourhood":"Удмуртская Тукля","provider":"openstreetmap"},{"latitude":57.0645442,"longitude":51.5695171,"formattedAddress":"Удмуртская Бабья, Сюмсинское сельское поселение, Сюмсинский район, Удмуртия, Приволжский федеральный округ, Россия","country":"Россия","city":"Удмуртская Бабья","state":"Удмуртия","countryCode":"RU","neighbourhood":"","provider":"openstreetmap"},{"latitude":58.116672449999996,"longitude":52.56574555669093,"formattedAddress":"ООО «Птицефабрика „Удмуртская“», Штанигуртское сельское поселение, Глазовский район, Удмуртия, Приволжский федеральный округ, Россия","country":"Россия","state":"Удмуртия","countryCode":"RU","neighbourhood":"","provider":"openstreetmap"},{"latitude":57.2035077,"longitude":51.968252,"formattedAddress":"Удмуртская Бия, Новомоньинское сельское поселение, Селтинский район, Удмуртия, Приволжский федеральный округ, Россия","country":"Россия","state":"Удмуртия","countryCode":"RU","neighbourhood":"","provider":"openstreetmap"},{"latitude":55.0339489,"longitude":82.883317,"formattedAddress":"Удмуртская улица, Железнодорожный район, Новосибирск, Новосибирская область, Сибирский федеральный округ, 630000, Россия","country":"Россия","city":"Новосибирск","state":"Новосибирская область","zipcode":"630000","streetName":"Удмуртская улица","countryCode":"RU","neighbourhood":"","provider":"openstreetmap"},{"latitude":42.8762187,"longitude":74.6542019,"formattedAddress":"Удмуртская улица, Бишкек, 772200, Кыргызстан","country":"Кыргызстан","city":"Бишкек","zipcode":"772200","streetName":"Удмуртская улица","countryCode":"KG","neighbourhood":"","provider":"openstreetmap"},{"latitude":53.7891063,"longitude":87.149406,"formattedAddress":"Удмуртская улица, Заводской район, Новокузнецк, Новокузнецкий городской округ, Кемеровская область, Сибирский федеральный округ, 654080, Россия","country":"Россия","city":"Новокузнецк","state":"Кемеровская область","zipcode":"654080","streetName":"Удмуртская улица","countryCode":"RU","neighbourhood":"","provider":"openstreetmap"},{"latitude":57.9739315,"longitude":52.9978903,"formattedAddress":"Удмуртская улица, Балезино, Балезинское сельское поселение, Балезинский район, Удмуртия, Приволжский федеральный округ, 427552, Россия","country":"Россия","city":"Балезино","state":"Удмуртия","zipcode":"427552","streetName":"Удмуртская улица","countryCode":"RU","neighbourhood":"","provider":"openstreetmap"},{"latitude":57.6589529,"longitude":53.8052547,"formattedAddress":"Удмуртская улица, Дебёсы, Дебёсское сельское поселение, Дебёсский район, Удмуртия, Приволжский федеральный округ, 427060, Россия","country":"Россия","city":"Дебёсы","state":"Удмуртия","zipcode":"427060","streetName":"Удмуртская улица","countryCode":"RU","neighbourhood":"","provider":"openstreetmap"}]},{"key":"Башкортостан, Белебеевский р-н, Приютово рп","value":[{"latitude":53.893932,"longitude":53.931328,"formattedAddress":"Приютово, Белебеевский район, Башкортостан, Приволжский федеральный округ, 452017, Россия","country":"Россия","city":"Приютово","state":"Башкортостан","zipcode":"452017","countryCode":"RU","neighbourhood":"","provider":"openstreetmap"},{"latitude":53.893932,"longitude":53.931328,"formattedAddress":"Приютовский поссовет, Белебеевский район, Башкортостан, Приволжский федеральный округ, 452017, Россия","country":"Россия","city":"Приютовский поссовет","state":"Башкортостан","zipcode":"452017","countryCode":"RU","neighbourhood":"","provider":"openstreetmap"}]},{"key":"Башкортостан, Белорецкий р-н","value":[{"latitude":54.4747553,"longitude":55.9784582,"formattedAddress":"Башкортостан, Приволжский федеральный округ, Россия","country":"Россия","state":"Башкортостан","countryCode":"RU","neighbourhood":"","provider":"openstreetmap"}]},{"key":"Башкортостан, Иглинский р-н, Урман с","value":[{"latitude":54.873905,"longitude":56.876022,"formattedAddress":"Урман, Урманский сельсовет, Иглинский район, Башкортостан, Приволжский федеральный округ, Россия","country":"Россия","city":"Урман","state":"Башкортостан","countryCode":"RU","neighbourhood":"","provider":"openstreetmap"},{"latitude":54.8755964,"longitude":56.8776096,"formattedAddress":"Урман, Вокзальная улица, Урман, Урманский сельсовет, Иглинский район, Башкортостан, Приволжский федеральный округ, Россия","country":"Россия","city":"Урман","state":"Башкортостан","streetName":"Вокзальная улица","countryCode":"RU","neighbourhood":"","provider":"openstreetmap"}]},{"key":"Башкортостан, Кугарчинский р-н, Даут-Каюпово д","value":[{"latitude":52.6130395,"longitude":56.2298085,"formattedAddress":"Даут-Каюпово, Тляумбетовский сельсовет, Кугарчинский район, Башкортостан, Приволжский федеральный округ, Россия","country":"Россия","city":"Даут-Каюпово","state":"Башкортостан","countryCode":"RU","neighbourhood":"","provider":"openstreetmap"},{"latitude":52.6337661,"longitude":56.2232454,"formattedAddress":"Тляумбетово-Даут-Каюпово, Тляумбетовский сельсовет, Кугарчинский район, Башкортостан, Приволжский федеральный округ, Россия","country":"Россия","state":"Башкортостан","streetName":"Тляумбетово-Даут-Каюпово","countryCode":"RU","neighbourhood":"","provider":"openstreetmap"},{"latitude":52.592934,"longitude":56.2792146,"formattedAddress":"Даут-Каюпово-Тавакан, Таваканово, Тляумбетовский сельсовет, Кугарчинский район, Башкортостан, Приволжский федеральный округ, Россия","country":"Россия","city":"Таваканово","state":"Башкортостан","streetName":"Даут-Каюпово-Тавакан","countryCode":"RU","neighbourhood":"","provider":"openstreetmap"},{"latitude":52.651838,"longitude":56.2671178,"formattedAddress":"Тляумбетово-Даут-Каюпово, Азнагулово, Тляумбетово, Тляумбетовский сельсовет, Кугарчинский район, Башкортостан, Приволжский федеральный округ, Россия","country":"Россия","city":"Тляумбетово","state":"Башкортостан","streetName":"Тляумбетово-Даут-Каюпово","countryCode":"RU","neighbourhood":"","provider":"openstreetmap"}]},{"key":"РБ, с. Киргиз-Мияки","value":[{"latitude":53.629292,"longitude":54.800922,"formattedAddress":"Киргиз-Мияки, Миякинский сельсовет, Миякинский район, Башкортостан, Приволжский федеральный округ, 452080, Россия","country":"Россия","city":"Киргиз-Мияки","state":"Башкортостан","zipcode":"452080","countryCode":"RU","neighbourhood":"","provider":"openstreetmap"}]},{"key":"Пермский, Куединский р-н, Маныш д","value":[{"latitude":56.4280324,"longitude":55.6787237,"formattedAddress":"Маныш, Куединский муниципальный округ, Пермский край, Приволжский федеральный округ, 617702, Россия","country":"Россия","city":"Маныш","state":"Пермский край","zipcode":"617702","countryCode":"RU","neighbourhood":"","provider":"openstreetmap"}]},{"key":"Башкортостан, Кировский","value":[{"latitude":54.932121,"longitude":56.992039,"formattedAddress":"Кировский, Улу-Телякский сельсовет, Иглинский район, Башкортостан, Приволжский федеральный округ, Россия","country":"Россия","city":"Кировский","state":"Башкортостан","countryCode":"RU","neighbourhood":"","provider":"openstreetmap"},{"latitude":55.389256,"longitude":56.6203,"formattedAddress":"Кировка, Красноключевский сельсовет, Нуримановский район, Башкортостан, Приволжский федеральный округ, Россия","country":"Россия","city":"Кировка","state":"Башкортостан","countryCode":"RU","neighbourhood":"","provider":"openstreetmap"},{"latitude":54.7306763,"longitude":55.9492165,"formattedAddress":"Башкортостан, улица Ленина, Ленинский район, Уфа, городской округ Уфа, Башкортостан, Приволжский федеральный округ, 450000, Россия","country":"Россия","city":"Уфа","state":"Башкортостан","zipcode":"450000","streetName":"улица Ленина","countryCode":"RU","neighbourhood":"","provider":"openstreetmap"},{"latitude":41.3268768,"longitude":69.2754307,"formattedAddress":"массив Киёт (Ц-5), 63 (Башкирия), Qiyot (C-5) dahasi, Yunusobod tumani, Toshkent, 100000, Oʻzbekiston","country":"Oʻzbekiston","city":"Toshkent","zipcode":"100000","countryCode":"UZ","neighbourhood":"Qiyot (C-5) dahasi","provider":"openstreetmap"}]},{"key":"Башкортостан, Баймакский р-н, Ишмурзино с","value":[{"latitude":52.447468,"longitude":58.167942,"formattedAddress":"Ишмурзино, Ишмурзинский сельсовет, Баймакский район, Башкортостан, Приволжский федеральный округ, Россия","country":"Россия","city":"Ишмурзино","state":"Башкортостан","countryCode":"RU","neighbourhood":"","provider":"openstreetmap"}]},{"key":"Башкортостан, Альшеевский р-н, Шафраново с","value":[{"latitude":53.983261,"longitude":54.76815,"formattedAddress":"Шафраново, Шафрановский сельсовет, Альшеевский район, Башкортостан, Приволжский федеральный округ, 452100, Россия","country":"Россия","city":"Шафраново","state":"Башкортостан","zipcode":"452100","countryCode":"RU","neighbourhood":"","provider":"openstreetmap"},{"latitude":53.899902,"longitude":54.930107,"formattedAddress":"Мечниково, Нижнеаврюзовский сельсовет, Альшеевский район, Башкортостан, Приволжский федеральный округ, Россия","country":"Россия","city":"Мечниково","state":"Башкортостан","countryCode":"RU","neighbourhood":"","provider":"openstreetmap"},{"latitude":53.835552,"longitude":54.915497,"formattedAddress":"Каменка, Чебенлинский сельсовет, Альшеевский район, Башкортостан, Приволжский федеральный округ, 452106, Россия","country":"Россия","city":"Каменка","state":"Башкортостан","zipcode":"452106","countryCode":"RU","neighbourhood":"","provider":"openstreetmap"},{"latitude":53.8800227,"longitude":54.82163887319034,"formattedAddress":"35 - Шафраново, Нижнеаврюзовский сельсовет, Альшеевский район, Башкортостан, Приволжский федеральный округ, Россия","country":"Россия","state":"Башкортостан","countryCode":"RU","neighbourhood":"","provider":"openstreetmap"},{"latitude":53.9570348,"longitude":54.8672331191307,"formattedAddress":"44 - Шафраново, Нижнеаврюзовский сельсовет, Альшеевский район, Башкортостан, Приволжский федеральный округ, Россия","country":"Россия","state":"Башкортостан","countryCode":"RU","neighbourhood":"","provider":"openstreetmap"},{"latitude":53.9845908,"longitude":54.7772757,"formattedAddress":"Шафраново, Железнодорожная улица, Шафраново, Шафрановский сельсовет, Альшеевский район, Башкортостан, Приволжский федеральный округ, 452100, Россия","country":"Россия","city":"Шафраново","state":"Башкортостан","zipcode":"452100","streetName":"Железнодорожная улица","countryCode":"RU","neighbourhood":"","provider":"openstreetmap"},{"latitude":53.98471445,"longitude":54.77766228351123,"formattedAddress":"Шафраново, Железнодорожная улица, Шафраново, Шафрановский сельсовет, Альшеевский район, Башкортостан, Приволжский федеральный округ, 452100, Россия","country":"Россия","city":"Шафраново","state":"Башкортостан","zipcode":"452100","streetName":"Железнодорожная улица","countryCode":"RU","neighbourhood":"","provider":"openstreetmap"},{"latitude":53.98202015,"longitude":54.78220950259336,"formattedAddress":"Шафраново, Железнодорожная улица, Шафраново, Шафрановский сельсовет, Альшеевский район, Башкортостан, Приволжский федеральный округ, 452100, Россия","country":"Россия","city":"Шафраново","state":"Башкортостан","zipcode":"452100","streetName":"Железнодорожная улица","countryCode":"RU","neighbourhood":"","provider":"openstreetmap"}]},{"key":"Башкортостан, Аскинский р-н, Чишма-Уракаево д","value":[{"latitude":55.914085,"longitude":56.387295,"formattedAddress":"Чишма-Уракаево, Арбашевский сельсовет, Аскинский район, Башкортостан, Приволжский федеральный округ, Россия","country":"Россия","city":"Чишма-Уракаево","state":"Башкортостан","countryCode":"RU","neighbourhood":"","provider":"openstreetmap"}]},{"key":"Башкортостан, Благоварский р-н, Языково с","value":[{"latitude":54.6720142,"longitude":54.787675165542815,"formattedAddress":"ЛПДС \"Языково\" Транснефть, Первомайский, Первомайский сельсовет, Благоварский район, Башкортостан, Приволжский федеральный округ, Россия","country":"Россия","city":"Первомайский","state":"Башкортостан","countryCode":"RU","neighbourhood":"","provider":"openstreetmap"},{"latitude":54.670391699999996,"longitude":54.789765246779496,"formattedAddress":"ЛПДС \"Языково\", Первомайский, Первомайский сельсовет, Благоварский район, Башкортостан, Приволжский федеральный округ, Россия","country":"Россия","city":"Первомайский","state":"Башкортостан","countryCode":"RU","neighbourhood":"","provider":"openstreetmap"},{"latitude":54.691818,"longitude":55.01387,"formattedAddress":"Языково, Языковский сельсовет, Благоварский район, Башкортостан, Приволжский федеральный округ, Россия","country":"Россия","city":"Языково","state":"Башкортостан","countryCode":"RU","neighbourhood":"","provider":"openstreetmap"},{"latitude":54.689713850000004,"longitude":55.02411474006972,"formattedAddress":"Автостанция Языково, улица Пушкина, Языково, Языковский сельсовет, Благоварский район, Башкортостан, Приволжский федеральный округ, 452740, Россия","country":"Россия","city":"Языково","state":"Башкортостан","zipcode":"452740","streetName":"улица Пушкина","countryCode":"RU","neighbourhood":"","provider":"openstreetmap"}]},{"key":"Башкортостан, Стерлибашевский р-н, Айдарали с","value":[{"latitude":53.386299,"longitude":55.031586,"formattedAddress":"Айдарали, Айдаралинский сельсовет, Стерлибашевский район, Башкортостан, Приволжский федеральный округ, Россия","country":"Россия","city":"Айдарали","state":"Башкортостан","countryCode":"RU","neighbourhood":"","provider":"openstreetmap"}]},{"key":"Башкортостан, Уфимский р-н, Жуково с","value":[{"latitude":54.656139,"longitude":55.77087,"formattedAddress":"Жуково, Жуковский сельсовет, Уфимский район, Башкортостан, Приволжский федеральный округ, Россия","country":"Россия","city":"Жуково","state":"Башкортостан","countryCode":"RU","neighbourhood":"","provider":"openstreetmap"},{"latitude":54.65392655,"longitude":55.764202374464205,"formattedAddress":"Средняя общеобразовательная школа с.Жуково, улица Ильина, Жуково, Жуковский сельсовет, Уфимский район, Башкортостан, Приволжский федеральный округ, 450570, Россия","country":"Россия","city":"Жуково","state":"Башкортостан","zipcode":"450570","streetName":"улица Ильина","countryCode":"RU","neighbourhood":"","provider":"openstreetmap"},{"latitude":54.6551169,"longitude":55.7370332,"formattedAddress":"Детский сад Жуково, Озёрная улица, Жуково, Жуковский сельсовет, Уфимский район, Башкортостан, Приволжский федеральный округ, 450580, Россия","country":"Россия","city":"Жуково","state":"Башкортостан","zipcode":"450580","streetName":"Озёрная улица","countryCode":"RU","neighbourhood":"","provider":"openstreetmap"}]},{"key":"Башкортостан, Дюртюлинский р-н, Старобаишево с","value":[{"latitude":55.417408,"longitude":55.112438,"formattedAddress":"Старобаишево, Старобаишевский сельсовет, Дюртюлинский район, Башкортостан, Приволжский федеральный округ, Россия","country":"Россия","city":"Старобаишево","state":"Башкортостан","countryCode":"RU","neighbourhood":"","provider":"openstreetmap"}]},{"key":"Башкортостан, Аургазинский р-н, Ибраево д","value":[{"latitude":53.939743,"longitude":56.009087,"formattedAddress":"Ибраево, Кебячевский сельсовет, Аургазинский район, Башкортостан, Приволжский федеральный округ, Россия","country":"Россия","city":"Ибраево","state":"Башкортостан","countryCode":"RU","neighbourhood":"","provider":"openstreetmap"},{"latitude":54.1373268,"longitude":56.0162277,"formattedAddress":"Малое Ибраево, Ибраевский сельсовет, Аургазинский район, Башкортостан, Приволжский федеральный округ, Россия","country":"Россия","city":"Малое Ибраево","state":"Башкортостан","countryCode":"RU","neighbourhood":"","provider":"openstreetmap"},{"latitude":54.127575,"longitude":56.045372,"formattedAddress":"Старое Ибраево, Ибраевский сельсовет, Аургазинский район, Башкортостан, Приволжский федеральный округ, Россия","country":"Россия","city":"Старое Ибраево","state":"Башкортостан","countryCode":"RU","neighbourhood":"","provider":"openstreetmap"},{"latitude":54.142232449999995,"longitude":56.02792585650493,"formattedAddress":"189 - Ибраево, Ибраевский сельсовет, Аургазинский район, Башкортостан, Приволжский федеральный округ, Россия","country":"Россия","state":"Башкортостан","countryCode":"RU","neighbourhood":"","provider":"openstreetmap"},{"latitude":54.142091199999996,"longitude":56.02625005952986,"formattedAddress":"УПС \"Ибраево\", Ибраевский сельсовет, Аургазинский район, Башкортостан, Приволжский федеральный округ, Россия","country":"Россия","state":"Башкортостан","countryCode":"RU","neighbourhood":"","provider":"openstreetmap"},{"latitude":54.1226604,"longitude":56.024933977791605,"formattedAddress":"205 - Ибраево, Ибраевский сельсовет, Аургазинский район, Башкортостан, Приволжский федеральный округ, Россия","country":"Россия","state":"Башкортостан","countryCode":"RU","neighbourhood":"","provider":"openstreetmap"},{"latitude":54.13185085,"longitude":56.023329000000004,"formattedAddress":"184 - Ибраево, Ибраевский сельсовет, Аургазинский район, Башкортостан, Приволжский федеральный округ, Россия","country":"Россия","state":"Башкортостан","countryCode":"RU","neighbourhood":"","provider":"openstreetmap"}]},{"key":"Башкортостан, Федоровский р-н, Денискино с","value":[]},{"key":"Башкортостан, Салаватский, с.Малояз","value":[{"latitude":55.2034086,"longitude":58.1536392,"formattedAddress":"Малояз, Татарский Малояз, Малоязовский сельсовет, Салаватский район, Башкортостан, Приволжский федеральный округ, 452490, Россия","country":"Россия","city":"Татарский Малояз","state":"Башкортостан","zipcode":"452490","countryCode":"RU","neighbourhood":"","provider":"openstreetmap"},{"latitude":55.182556,"longitude":58.155067,"formattedAddress":"Малояз, Салаватский сельсовет, Салаватский район, Башкортостан, Приволжский федеральный округ, 452490, Россия","country":"Россия","city":"Малояз","state":"Башкортостан","zipcode":"452490","countryCode":"RU","neighbourhood":"","provider":"openstreetmap"},{"latitude":55.1507763,"longitude":58.1714465,"formattedAddress":"Малояз, Р-350, Малояз, Салаватский сельсовет, Салаватский район, Башкортостан, Приволжский федеральный округ, 452490, Россия","country":"Россия","city":"Малояз","state":"Башкортостан","zipcode":"452490","streetName":"Р-350","countryCode":"RU","neighbourhood":"","provider":"openstreetmap"}]},{"key":"Татарстан, Сармановский р-н, Джалиль пгт","value":[]},{"key":"Башкортостан, Бижбулякский р-н","value":[{"latitude":53.67660285,"longitude":54.16194151951898,"formattedAddress":"Бижбулякский район, Башкортостан, Приволжский федеральный округ, Россия","country":"Россия","state":"Башкортостан","countryCode":"RU","neighbourhood":"","provider":"openstreetmap"},{"latitude":53.6787983,"longitude":54.22920468966182,"formattedAddress":"Бижбулякский сельсовет, Бижбулякский район, Башкортостан, Приволжский федеральный округ, 452040, Россия","country":"Россия","state":"Башкортостан","zipcode":"452040","countryCode":"RU","neighbourhood":"","provider":"openstreetmap"},{"latitude":53.6944044,"longitude":54.2543843,"formattedAddress":"Бижбулякский автовокзал, Центральная улица, Бижбуляк, Бижбулякский сельсовет, Бижбулякский район, Башкортостан, Приволжский федеральный округ, 452040, Россия","country":"Россия","city":"Бижбуляк","state":"Башкортостан","zipcode":"452040","streetName":"Центральная улица","countryCode":"RU","neighbourhood":"","provider":"openstreetmap"}]},{"key":"Башкортостан, Федоровский р-н, с. Старый Четырман","value":[]},{"key":"Башкортостан, Зилаирский р-н, Зилаир с","value":[{"latitude":52.233707,"longitude":57.441547,"formattedAddress":"Зилаир, Зилаирский сельсовет, Зилаирский район, Башкортостан, Приволжский федеральный округ, 453680, Россия","country":"Россия","city":"Зилаир","state":"Башкортостан","zipcode":"453680","countryCode":"RU","neighbourhood":"","provider":"openstreetmap"},{"latitude":52.1821489,"longitude":57.4307299,"formattedAddress":"Зилаир, Зилаирский сельсовет, Зилаирский район, Башкортостан, Приволжский федеральный округ, 453680, Россия","country":"Россия","city":"Зилаир","state":"Башкортостан","zipcode":"453680","countryCode":"RU","neighbourhood":"","provider":"openstreetmap"},{"latitude":52.0372211,"longitude":57.4694931,"formattedAddress":"Зилаир, Зилаирский район, Башкортостан, Приволжский федеральный округ, Россия","country":"Россия","state":"Башкортостан","countryCode":"RU","neighbourhood":"","provider":"openstreetmap"},{"latitude":52.2882418,"longitude":57.755343,"formattedAddress":"Крепостной Зилаир, Кашкаровский сельсовет, Зилаирский район, Башкортостан, Приволжский федеральный округ, Россия","country":"Россия","state":"Башкортостан","countryCode":"RU","neighbourhood":"","provider":"openstreetmap"},{"latitude":52.2561606,"longitude":57.8019247,"formattedAddress":"Крепостной Зилаир, Канзафаровский сельсовет, Зилаирский район, Башкортостан, Приволжский федеральный округ, Россия","country":"Россия","state":"Башкортостан","countryCode":"RU","neighbourhood":"","provider":"openstreetmap"},{"latitude":52.3486036,"longitude":57.7635214,"formattedAddress":"Крепостной Зилаир, Кашкарово, Кашкаровский сельсовет, Зилаирский район, Башкортостан, Приволжский федеральный округ, Россия","country":"Россия","city":"Кашкарово","state":"Башкортостан","countryCode":"RU","neighbourhood":"","provider":"openstreetmap"},{"latitude":52.2292533,"longitude":57.4117352,"formattedAddress":"\"Зилаир\", 80К-012, Зилаир, Зилаирский сельсовет, Зилаирский район, Башкортостан, Приволжский федеральный округ, 453680, Россия","country":"Россия","city":"Зилаир","state":"Башкортостан","zipcode":"453680","streetName":"80К-012","countryCode":"RU","neighbourhood":"","provider":"openstreetmap"}]},{"key":"Башкортостан, Бурзянский р-н, Старосубхангулово с","value":[{"latitude":53.1025615,"longitude":57.4373309,"formattedAddress":"Старосубхангулово, Старосубхангуловский сельсовет, Бурзянский район, Башкортостан, Приволжский федеральный округ, 453580, Россия","country":"Россия","city":"Старосубхангулово","state":"Башкортостан","zipcode":"453580","countryCode":"RU","neighbourhood":"","provider":"openstreetmap"},{"latitude":53.10565475,"longitude":57.423450475373684,"formattedAddress":"Старосубхангулово, Старосубхангуловский сельсовет, Бурзянский район, Башкортостан, Приволжский федеральный округ, 453580, Россия","country":"Россия","city":"Старосубхангулово","state":"Башкортостан","zipcode":"453580","countryCode":"RU","neighbourhood":"","provider":"openstreetmap"}]},{"key":"Республика","value":[{"latitude":42.5869578,"longitude":20.9021231,"formattedAddress":"Kosova / Kosovo","countryCode":"XK","neighbourhood":"","provider":"openstreetmap"},{"latitude":54.8545549,"longitude":37.622957,"formattedAddress":"Республика, городской округ Серпухов, Московская область, Центральный федеральный округ, Россия","country":"Россия","city":"Республика","state":"Московская область","countryCode":"RU","neighbourhood":"","provider":"openstreetmap"},{"latitude":47.2546,"longitude":37.20185,"formattedAddress":"Республіка, Республіканська сільська рада, Маріупольський район, Донецька область, 87021, Україна","country":"Україна","city":"Республіка","state":"Донецька область","zipcode":"87021","countryCode":"UA","neighbourhood":"","provider":"openstreetmap"},{"latitude":55.8216799,"longitude":37.4981122,"formattedAddress":"Республика, Ленинградское шоссе, Войковский район, Москва, Центральный федеральный округ, 125171, Россия","country":"Россия","city":"Москва","state":"Москва","zipcode":"125171","streetName":"Ленинградское шоссе","countryCode":"RU","neighbourhood":"","provider":"openstreetmap"},{"latitude":55.761279,"longitude":37.663018,"formattedAddress":"Республика, Нижний Сусальный переулок, Бауманка, Басманный район, Москва, Центральный федеральный округ, 105064, Россия","country":"Россия","city":"Москва","state":"Москва","zipcode":"105064","streetName":"Нижний Сусальный переулок","countryCode":"RU","neighbourhood":"","provider":"openstreetmap"},{"latitude":55.77055,"longitude":37.424127,"formattedAddress":"Республика, Крылатская улица, Крылатское, район Крылатское, Москва, Центральный федеральный округ, 121614, Россия","country":"Россия","city":"Москва","state":"Москва","zipcode":"121614","streetName":"Крылатская улица","countryCode":"RU","neighbourhood":"","provider":"openstreetmap"},{"latitude":55.8049751,"longitude":37.5850586,"formattedAddress":"Республика, Большая Новодмитровская улица, Бутырский район, Москва, Центральный федеральный округ, 127015, Россия","country":"Россия","city":"Москва","state":"Москва","zipcode":"127015","streetName":"Большая Новодмитровская улица","countryCode":"RU","neighbourhood":"","provider":"openstreetmap"},{"latitude":55.746593,"longitude":37.537371,"formattedAddress":"Республика, Пресненская набережная, Шелепиха, Пресненский район, Москва, Центральный федеральный округ, 123112, Россия","country":"Россия","city":"Москва","state":"Москва","zipcode":"123112","streetName":"Пресненская набережная","countryCode":"RU","neighbourhood":"","provider":"openstreetmap"},{"latitude":55.7632625,"longitude":37.5913856,"formattedAddress":"Республика, Малый Патриарший переулок, 48, Пресненский район, Москва, Центральный федеральный округ, 123001, Россия","country":"Россия","city":"Москва","state":"Москва","zipcode":"123001","streetName":"Малый Патриарший переулок","countryCode":"RU","neighbourhood":"","provider":"openstreetmap"},{"latitude":56.8238844,"longitude":60.5052186,"formattedAddress":"Республика, улица Металлургов, Верх-Исетский район, Екатеринбург, городской округ Екатеринбург, Свердловская область, Уральский федеральный округ, 620043, Россия","country":"Россия","city":"Екатеринбург","state":"Свердловская область","zipcode":"620043","streetName":"улица Металлургов","countryCode":"RU","neighbourhood":"","provider":"openstreetmap"}]},{"key":"Оренбургская","value":[{"latitude":50.2533739,"longitude":57.2485768,"formattedAddress":"Оренбургская, район Гормолзавод, Актобе, Актюбинская область, 030000, Қазақстан","country":"Қазақстан","city":"Актобе","state":"Актюбинская область","zipcode":"030000","streetName":"Оренбургская","countryCode":"KZ","neighbourhood":"","provider":"openstreetmap"}]},{"key":"РБ, пос. Приютово","value":[]},{"key":"РБ, Дуванский, с. Месягутово","value":[{"latitude":55.534695,"longitude":58.239239,"formattedAddress":"Месягутово, Месягутовский сельсовет, Дуванский район, Башкортостан, Приволжский федеральный округ, Россия","country":"Россия","city":"Месягутово","state":"Башкортостан","countryCode":"RU","neighbourhood":"","provider":"openstreetmap"}]},{"key":"Башкортостан, Белебеевский р-н","value":[{"latitude":54.15123495,"longitude":54.18499764912451,"formattedAddress":"Белебеевский район, Башкортостан, Приволжский федеральный округ, Россия","country":"Россия","state":"Башкортостан","countryCode":"RU","neighbourhood":"","provider":"openstreetmap"},{"latitude":54.1107102,"longitude":54.15556490216158,"formattedAddress":"Белебеевский водоканал, Белебей, Белебеевский район, Башкортостан, Приволжский федеральный округ, 452004, Россия","country":"Россия","city":"Белебей","state":"Башкортостан","zipcode":"452004","countryCode":"RU","neighbourhood":"","provider":"openstreetmap"},{"latitude":53.8999464,"longitude":53.9328378,"formattedAddress":"Белебеевский, улица Ленина, Приютовский поссовет, Белебеевский район, Башкортостан, Приволжский федеральный округ, 452017, Россия","country":"Россия","city":"Приютовский поссовет","state":"Башкортостан","zipcode":"452017","streetName":"улица Ленина","countryCode":"RU","neighbourhood":"","provider":"openstreetmap"},{"latitude":54.0957412,"longitude":54.1056835,"formattedAddress":"Центр Гигиены и Эпидемиологии в Республике Башкортостан, 4/1, Волгоградская улица, городское поселение Белебей, Белебеевский район, Башкортостан, Приволжский федеральный округ, 452009, Россия","country":"Россия","city":"городское поселение Белебей","state":"Башкортостан","zipcode":"452009","streetName":"Волгоградская улица","streetNumber":"4/1","countryCode":"RU","neighbourhood":"","provider":"openstreetmap"},{"latitude":54.108757749999995,"longitude":54.13306746832495,"formattedAddress":"МАУК Центральная межпоселенческая библиотека № 3 с детским отделением города Белебея муниципального района Белебеевский район Республики Башкортостан, 27А, Советская улица, городское поселение Белебей, Белебеевский район, Башкортостан, Приволжский федеральный округ, 452001, Россия","country":"Россия","city":"городское поселение Белебей","state":"Башкортостан","zipcode":"452001","streetName":"Советская улица","streetNumber":"27А","countryCode":"RU","neighbourhood":"","provider":"openstreetmap"},{"latitude":54.1194332,"longitude":54.1197703,"formattedAddress":"МАУК Центральная поселенческая библиотека № 1 города Белебея муниципального района Белебеевский район Республики Башкортостан, 156, Красноармейская улица, городское поселение Белебей, Белебеевский район, Башкортостан, Приволжский федеральный округ, 452008, Россия","country":"Россия","city":"городское поселение Белебей","state":"Башкортостан","zipcode":"452008","streetName":"Красноармейская улица","streetNumber":"156","countryCode":"RU","neighbourhood":"","provider":"openstreetmap"},{"latitude":54.0975028,"longitude":54.1023867,"formattedAddress":"МАУК Центральная межпоселенческая детская библиотека города Белебея муниципального района Белебеевский район Республики Башкортостан, 134, Красная улица, городское поселение Белебей, Белебеевский район, Башкортостан, Приволжский федеральный округ, 452000, Россия","country":"Россия","city":"городское поселение Белебей","state":"Башкортостан","zipcode":"452000","streetName":"Красная улица","streetNumber":"134","countryCode":"RU","neighbourhood":"","provider":"openstreetmap"},{"latitude":54.09522,"longitude":54.0990498,"formattedAddress":"МАУК Центральная поселенческая библиотека № 2 города Белебея муниципального района Белебеевский район Республики Башкортостан, 138, Красная улица, городское поселение Белебей, Белебеевский район, Башкортостан, Приволжский федеральный округ, 452000, Россия","country":"Россия","city":"городское поселение Белебей","state":"Башкортостан","zipcode":"452000","streetName":"Красная улица","streetNumber":"138","countryCode":"RU","neighbourhood":"","provider":"openstreetmap"},{"latitude":54.1024957,"longitude":54.108796,"formattedAddress":"Администрация МР Белебеевский район РБ, 114, Красная улица, Белебей, Белебеевский район, Башкортостан, Приволжский федеральный округ, 452009, Россия","country":"Россия","city":"Белебей","state":"Башкортостан","zipcode":"452009","streetName":"Красная улица","streetNumber":"114","countryCode":"RU","neighbourhood":"","provider":"openstreetmap"},{"latitude":54.1107108,"longitude":54.10377181189814,"formattedAddress":"МАУК «МЦНК «Урал-Батыр» МР Белебеевский район РБ, 28, улица С.Ф.Горохова, городское поселение Белебей, Белебеевский район, Башкортостан, Приволжский федеральный округ, 452000, Россия","country":"Россия","city":"городское поселение Белебей","state":"Башкортостан","zipcode":"452000","streetName":"улица С.Ф.Горохова","streetNumber":"28","countryCode":"RU","neighbourhood":"","provider":"openstreetmap"}]},{"key":"Башкортостан, Абзелиловский р-н, Аскарово с","value":[{"latitude":53.3391062,"longitude":58.5060548,"formattedAddress":"Аскарово, Аскаровский сельсовет, Абзелиловский район, Башкортостан, Приволжский федеральный округ, Россия","country":"Россия","city":"Аскарово","state":"Башкортостан","countryCode":"RU","neighbourhood":"","provider":"openstreetmap"},{"latitude":53.2980171,"longitude":58.437379,"formattedAddress":"Подъезд к с. Аскарово, Аскарово, Аскаровский сельсовет, Абзелиловский район, Башкортостан, Приволжский федеральный округ, 453620, Россия","country":"Россия","city":"Аскарово","state":"Башкортостан","zipcode":"453620","streetName":"Подъезд к с. Аскарово","countryCode":"RU","neighbourhood":"","provider":"openstreetmap"},{"latitude":53.3420792,"longitude":58.5936976,"formattedAddress":"Аскарово - Давлетово  - аэропорт Магнитогорск, Кушеево, Давлетовский сельсовет, Абзелиловский район, Башкортостан, Приволжский федеральный округ, 453624, Россия","country":"Россия","city":"Кушеево","state":"Башкортостан","zipcode":"453624","streetName":"Аскарово - Давлетово  - аэропорт Магнитогорск","countryCode":"RU","neighbourhood":"","provider":"openstreetmap"},{"latitude":53.3567854,"longitude":58.7191847,"formattedAddress":"Аскарово - Давлетово - аэропорт Магнитогорск, Давлетово, Давлетовский сельсовет, Абзелиловский район, Башкортостан, Приволжский федеральный округ, 453624, Россия","country":"Россия","city":"Давлетово","state":"Башкортостан","zipcode":"453624","streetName":"Аскарово - Давлетово - аэропорт Магнитогорск","countryCode":"RU","neighbourhood":"","provider":"openstreetmap"},{"latitude":53.3708335,"longitude":58.7723923,"formattedAddress":"Аскарово - Давлетово - аэропорт Магнитогорск, Краснобашкирский сельсовет, Абзелиловский район, Башкортостан, Приволжский федеральный округ, 455033, Россия","country":"Россия","state":"Башкортостан","zipcode":"455033","streetName":"Аскарово - Давлетово - аэропорт Магнитогорск","countryCode":"RU","neighbourhood":"","provider":"openstreetmap"}]},{"key":"Башкортостан, Стерлитамакский р-н, Новая Отрадовка с","value":[{"latitude":53.59214,"longitude":55.896832,"formattedAddress":"Новая Отрадовка, Отрадовский сельсовет, Стерлитамакский район, Башкортостан, Приволжский федеральный округ, 453140, Россия","country":"Россия","city":"Новая Отрадовка","state":"Башкортостан","zipcode":"453140","countryCode":"RU","neighbourhood":"","provider":"openstreetmap"}]},{"key":"Башкортостан, Янаульский р-н, Иткинеево с","value":[{"latitude":56.219696,"longitude":54.964699,"formattedAddress":"Иткинеево, Иткинеевский сельсовет, Янаульский район, Башкортостан, Приволжский федеральный округ, 452825, Россия","country":"Россия","city":"Иткинеево","state":"Башкортостан","zipcode":"452825","countryCode":"RU","neighbourhood":"","provider":"openstreetmap"}]},{"key":"Башкортостан, Кармаскалинский р-н, Сарт-Чишма с","value":[{"latitude":54.364902,"longitude":56.447605,"formattedAddress":"Сарт-Чишма, Новокиешкинский сельсовет, Кармаскалинский район, Башкортостан, Приволжский федеральный округ, Россия","country":"Россия","city":"Сарт-Чишма","state":"Башкортостан","countryCode":"RU","neighbourhood":"","provider":"openstreetmap"}]},{"key":"Башкортостан, Шаранский р-н, Новоюмашево с","value":[{"latitude":54.953608,"longitude":54.1975078,"formattedAddress":"Новоюмашево, Мичуринский сельсовет, Шаранский район, Башкортостан, Приволжский федеральный округ, Россия","country":"Россия","city":"Новоюмашево","state":"Башкортостан","countryCode":"RU","neighbourhood":"","provider":"openstreetmap"}]},{"key":"Татарстан, Лениногорский р-н","value":[{"latitude":54.5865194,"longitude":52.19826659143098,"formattedAddress":"Лениногорский район, Татарстан, Приволжский федеральный округ, Россия","country":"Россия","state":"Татарстан","countryCode":"RU","neighbourhood":"","provider":"openstreetmap"},{"latitude":54.62697925,"longitude":52.51333320418635,"formattedAddress":"ООО \"Сервис НПО\", Лениногорский цех №3, Письмянское сельское поселение, Лениногорский район, Татарстан, Приволжский федеральный округ, Россия","country":"Россия","state":"Татарстан","countryCode":"RU","neighbourhood":"","provider":"openstreetmap"},{"latitude":54.8650646,"longitude":53.0506484,"formattedAddress":"Лениногорский тракт, Азнакаево, Азнакаевский район, Татарстан, Приволжский федеральный округ, 423330, Россия","country":"Россия","city":"Азнакаево","state":"Татарстан","zipcode":"423330","streetName":"Лениногорский тракт","countryCode":"RU","neighbourhood":"","provider":"openstreetmap"},{"latitude":54.8490367,"longitude":53.0594483,"formattedAddress":"Лениногорский тракт, Азнакаево, Агерзинское сельское поселение, Азнакаевский район, Татарстан, Приволжский федеральный округ, 423332, Россия","country":"Россия","city":"Азнакаево","state":"Татарстан","zipcode":"423332","streetName":"Лениногорский тракт","countryCode":"RU","neighbourhood":"","provider":"openstreetmap"},{"latitude":54.8521278,"longitude":53.08708046409585,"formattedAddress":"Лениногорский политехнический колледж филиал №1, 27, улица Султангалиева, Азнакаево, Азнакаевский район, Татарстан, Приволжский федеральный округ, 423331, Россия","country":"Россия","city":"Азнакаево","state":"Татарстан","zipcode":"423331","streetName":"улица Султангалиева","streetNumber":"27","countryCode":"RU","neighbourhood":"","provider":"openstreetmap"},{"latitude":54.590750799999995,"longitude":52.436011705632396,"formattedAddress":"Лениногорский детский дом, 51, улица Садриева, Лениногорск, Лениногорский район, Татарстан, Приволжский федеральный округ, 423250, Россия","country":"Россия","city":"Лениногорск","state":"Татарстан","zipcode":"423250","streetName":"улица Садриева","streetNumber":"51","countryCode":"RU","neighbourhood":"","provider":"openstreetmap"},{"latitude":54.5926118,"longitude":52.4326976,"formattedAddress":"лениногорский политехнический колледж (корпус № 1), улица Кошевого, городское поселение Лениногорск, Лениногорский район, Татарстан, Приволжский федеральный округ, 423250, Россия","country":"Россия","city":"городское поселение Лениногорск","state":"Татарстан","zipcode":"423250","streetName":"улица Кошевого","countryCode":"RU","neighbourhood":"","provider":"openstreetmap"},{"latitude":54.598680099999996,"longitude":52.438043550475285,"formattedAddress":"Лениногорский музыкально-художественный педагогический колледж, 36, улица Шашина, Лениногорск, Лениногорский район, Татарстан, Приволжский федеральный округ, 423250, Россия","country":"Россия","city":"Лениногорск","state":"Татарстан","zipcode":"423250","streetName":"улица Шашина","streetNumber":"36","countryCode":"RU","neighbourhood":"","provider":"openstreetmap"},{"latitude":54.60625605,"longitude":52.45008444508782,"formattedAddress":"Лениногорский Нефтяной Техникум, 26, улица 50 лет Победы, Лениногорск, Лениногорский район, Татарстан, Приволжский федеральный округ, 423250, Россия","country":"Россия","city":"Лениногорск","state":"Татарстан","zipcode":"423250","streetName":"улица 50 лет Победы","streetNumber":"26","countryCode":"RU","neighbourhood":"","provider":"openstreetmap"},{"latitude":54.599048249999996,"longitude":52.437844241849,"formattedAddress":"Лениногорский музыкально-художественный педагогический колледж, 34, улица Шашина, Лениногорск, Лениногорский район, Татарстан, Приволжский федеральный округ, 423250, Россия","country":"Россия","city":"Лениногорск","state":"Татарстан","zipcode":"423250","streetName":"улица Шашина","streetNumber":"34","countryCode":"RU","neighbourhood":"","provider":"openstreetmap"}]},{"key":"Башкортостан, Уфимский р-н","value":[{"latitude":54.7209784,"longitude":55.70762783981242,"formattedAddress":"Уфимский район, Башкортостан, Приволжский федеральный округ, Россия","country":"Россия","state":"Башкортостан","countryCode":"RU","neighbourhood":"","provider":"openstreetmap"},{"latitude":54.551571,"longitude":56.035412,"formattedAddress":"Ольховое, Ольховский сельсовет, Уфимский район, Башкортостан, Приволжский федеральный округ, 450590, Россия","country":"Россия","city":"Ольховое","state":"Башкортостан","zipcode":"450590","countryCode":"RU","neighbourhood":"","provider":"openstreetmap"},{"latitude":52.211227,"longitude":58.290257,"formattedAddress":"Уфимский, Уфимский сельсовет, Хайбуллинский район, Башкортостан, Приволжский федеральный округ, Россия","country":"Россия","city":"Уфимский","state":"Башкортостан","countryCode":"RU","neighbourhood":"","provider":"openstreetmap"},{"latitude":52.213047700000004,"longitude":58.21398323143033,"formattedAddress":"Уфимский сельсовет, Хайбуллинский район, Башкортостан, Приволжский федеральный округ, Россия","country":"Россия","state":"Башкортостан","countryCode":"RU","neighbourhood":"","provider":"openstreetmap"},{"latitude":54.8046961,"longitude":56.105867992143615,"formattedAddress":"Уфимский Молочный Завод, Черниковка, Калининский район, Уфа, городской округ Уфа, Башкортостан, Приволжский федеральный округ, 450000, Россия","country":"Россия","city":"Уфа","state":"Башкортостан","zipcode":"450000","countryCode":"RU","neighbourhood":"","provider":"openstreetmap"},{"latitude":54.79674305,"longitude":56.09602353995399,"formattedAddress":"Уфимский мясоконсервный комбинат, Калининский район, Уфа, городской округ Уфа, Башкортостан, Приволжский федеральный округ, 450000, Россия","country":"Россия","city":"Уфа","state":"Башкортостан","zipcode":"450000","countryCode":"RU","neighbourhood":"","provider":"openstreetmap"},{"latitude":54.667710400000004,"longitude":55.94441289803613,"formattedAddress":"Уфимский комбинат Хлебопродуктов, Кировский район, Уфа, городской округ Уфа, Башкортостан, Приволжский федеральный округ, Россия","country":"Россия","city":"Уфа","state":"Башкортостан","countryCode":"RU","neighbourhood":"","provider":"openstreetmap"},{"latitude":54.80542525,"longitude":56.08784881003086,"formattedAddress":"Уфимский хлебозавод №7, Черниковка, Калининский район, Уфа, городской округ Уфа, Башкортостан, Приволжский федеральный округ, 450000, Россия","country":"Россия","city":"Уфа","state":"Башкортостан","zipcode":"450000","countryCode":"RU","neighbourhood":"","provider":"openstreetmap"},{"latitude":54.80586505,"longitude":56.07915437370167,"formattedAddress":"Уфимский ЖБЗ-2, Черниковка, Калининский район, Уфа, городской округ Уфа, Башкортостан, Приволжский федеральный округ, 450000, Россия","country":"Россия","city":"Уфа","state":"Башкортостан","zipcode":"450000","countryCode":"RU","neighbourhood":"","provider":"openstreetmap"},{"latitude":54.79362515,"longitude":56.06661276418033,"formattedAddress":"Уфимский фанерный комбинат, Октябрьский район, Уфа, городской округ Уфа, Башкортостан, Приволжский федеральный округ, 450000, Россия","country":"Россия","city":"Уфа","state":"Башкортостан","zipcode":"450000","countryCode":"RU","neighbourhood":"","provider":"openstreetmap"}]},{"key":"РБ, Аургазинский, д. Надеждино","value":[{"latitude":54.225521,"longitude":55.603092,"formattedAddress":"Надеждино, Уршакский сельсовет, Аургазинский район, Башкортостан, Приволжский федеральный округ, Россия","country":"Россия","city":"Надеждино","state":"Башкортостан","countryCode":"RU","neighbourhood":"","provider":"openstreetmap"}]},{"key":"Башкортостан, Дмитриевка с","value":[{"latitude":54.261505,"longitude":56.284359,"formattedAddress":"Дмитриевка, Ефремкинский сельсовет, Кармаскалинский район, Башкортостан, Приволжский федеральный округ, Россия","country":"Россия","city":"Дмитриевка","state":"Башкортостан","countryCode":"RU","neighbourhood":"","provider":"openstreetmap"},{"latitude":53.7965867,"longitude":56.1632516,"formattedAddress":"Дмитриевка, Мраковский сельсовет, Гафурийский район, Башкортостан, Приволжский федеральный округ, Россия","country":"Россия","city":"Дмитриевка","state":"Башкортостан","countryCode":"RU","neighbourhood":"","provider":"openstreetmap"},